name,category,latitude,longitude,address,phone,website,google_maps_url,rating,review_count,price_level,hours,open_now,types,place_id
Hotel Altamira Mazunte,Restaurants,15.6635866,-96.5573295,"Camino a Punta Cometa S/N, 70946 Mazunte, Oax., Mexico",958 688 3800,https://altamiramazunte.com/,https://maps.google.com/?cid=12309439154860407205,4.4,394,N/A,Monday: 8:00 AM – 10:00 PM | Tuesday: 8:00 AM – 10:00 PM | Wednesday: 8:00 AM – 10:00 PM | Thursday: 8:00 AM – 10:00 PM | Friday: 8:00 AM – 10:00 PM | Saturday: 8:00 AM – 10:00 PM | Sunday: 8:00 AM – 10:00 PM,False,,ChIJmQ4N5T8ouYURpTm9cbHp06o
Paraíso del Pescador,Restaurants,15.6654381,-96.54441059999999,"San Agustinillo Tonameca . calle principal s/n col centro, 70947 Mazunte, Oax., Mexico",958 589 9517,http://paraisodelpescador.tuhotel.com.mx/,https://maps.google.com/?cid=13709901487590404392,4,342,N/A,Monday: 8:00 AM – 10:00 PM | Tuesday: 8:00 AM – 10:00 PM | Wednesday: 8:00 AM – 10:00 PM | Thursday: 8:00 AM – 10:00 PM | Friday: 8:00 AM – 10:00 PM | Saturday: 8:00 AM – 10:00 PM | Sunday: 8:00 AM – 10:00 PM,False,,ChIJTcjEWTcouYURKPFsycNaQ74
Palapa Omar,Restaurants,15.6649815,-96.55369519999999,"70947 Santa María Tonameca, Oaxaca, Mexico",958 131 8626,N/A,https://maps.google.com/?cid=16728805299135862195,3.6,139,N/A,Monday: 7:00 AM – 6:00 PM | Tuesday: 7:00 AM – 6:00 PM | Wednesday: 7:00 AM – 6:00 PM | Thursday: 7:00 AM – 6:00 PM | Friday: 7:00 AM – 6:00 PM | Saturday: 7:00 AM – 6:00 PM | Sunday: 7:00 AM – 6:00 PM,False,,ChIJYdK88j4ouYURs1WqW8mnKOg
Jalilh restaurante & bar,Restaurants,15.6649929,-96.5534837,"Andador carey Playa, 70947 Mazunte, Oax., Mexico",958 107 6567,N/A,https://maps.google.com/?cid=5847687204100691825,4.5,257,N/A,Monday: 8:00 AM – 7:00 PM | Tuesday: 8:00 AM – 7:00 PM | Wednesday: 8:00 AM – 7:00 PM | Thursday: 8:00 AM – 7:00 PM | Friday: 8:00 AM – 10:00 PM | Saturday: 8:00 AM – 11:00 PM | Sunday: 8:00 AM – 10:00 PM,False,,ChIJr8U_7T4ouYURcdcEnocoJ1E
El Pescador,Restaurants,15.6647534,-96.5543335,"playa principal Mazunte, 70209 Santa María Tonameca, Oax., Mexico",N/A,N/A,https://maps.google.com/?cid=3747820351293269074,4.1,207,$$,Monday: 7:00 AM – 9:00 PM | Tuesday: 7:00 AM – 9:00 PM | Wednesday: 7:00 AM – 9:00 PM | Thursday: 7:00 AM – 9:00 PM | Friday: 7:00 AM – 9:00 PM | Saturday: 7:00 AM – 9:00 PM | Sunday: 7:00 AM – 9:00 PM,False,,ChIJqcRoWT4ouYURUqTQsMDuAjQ
KAPRICHO,Restaurants,15.6640192,-96.5558009,"PLAYA RINCONCITO SN, 70947 Oax., Mexico",958 113 2895,https://www.facebook.com/KaprichoMazunte/?fref=ts,https://maps.google.com/?cid=1939488543105808809,3.3,6,N/A,N/A,Unknown,,ChIJZ95QNj4ouYURqfnC2Y1y6ho
Mazuntaco,Restaurants,15.6668755,-96.5527929,"México 175, 70947 Mazunte, Oax., Mexico",N/A,https://www.facebook.com/mazuntaco,https://maps.google.com/?cid=4065332138874176284,3,1,N/A,N/A,Unknown,,ChIJg5cgHzwouYURHAOTjwr2ajg
Doña Meche,Restaurants,15.6670939,-96.55571139999999,"Rinconcito, 70947 Mazunte, Oax., Mexico",958 109 8712,N/A,https://maps.google.com/?cid=13801636903347960837,3.5,282,N/A,Monday: 8:00 AM – 11:00 PM | Tuesday: 8:00 AM – 11:00 PM | Wednesday: 8:00 AM – 11:00 PM | Thursday: 8:00 AM – 11:00 PM | Friday: 8:00 AM – 11:00 PM | Saturday: 8:00 AM – 11:00 PM | Sunday: 8:00 AM – 11:00 PM,False,,ChIJqbmS6T0ouYURBTz6rqNDib8
Gigantortas y pipas de agua don temo,Restaurants,15.6676657,-96.5532228,"México 175 26, 70947 Mazunte, Oax., Mexico",958 113 2316,http://www.purificadoragotadevida.amawebs.com/,https://maps.google.com/?cid=12758009583424734559,5,1,N/A,N/A,Unknown,,ChIJDyaTPjwouYURX4UPDR-ODbE
R La Tortuguita,Restaurants,15.6678567,-96.5534842,"Av. Principal s/n, Las Tortuguitas, 60946 Mazunte, Oax., Mexico",958 589 9016,N/A,https://maps.google.com/?cid=12060443598271667759,4.3,6,N/A,N/A,Unknown,,ChIJqzL7ODwouYURL96dvI1NX6c
El copal restaurant and hotel,Restaurants,15.6621459,-96.5596875,"mermejita manzunte, Av del Panteón, Arboledas del Sur, 70947 México, D.F., Mexico",55 5616 1607,N/A,https://maps.google.com/?cid=5884340425864420426,4.2,53,N/A,Monday: 7:30 AM – 10:30 PM | Tuesday: 7:30 AM – 10:30 PM | Wednesday: 7:30 AM – 10:30 PM | Thursday: 7:30 AM – 10:30 PM | Friday: 7:30 AM – 10:30 PM | Saturday: 7:30 AM – 10:30 PM | Sunday: 7:30 AM – 10:30 PM,False,,ChIJcbFf4RQouYURSpwe1XBgqVE
Panza Verde - Las Tres Marias,Restaurants,15.6664628,-96.54485120000001,"México 175 141, Jose Vasconcelos, 68115 Oaxaca de Juárez, Oax., Mexico",19581004044,N/A,https://maps.google.com/?cid=14735911989256283690,5,3,N/A,N/A,Unknown,,ChIJa7LWNzcouYURKmYKSeF5gMw
Casa Las Almas - Mazunte,Restaurants,15.6735364,-96.5586032,"La Huerta S/N, La Huerta, 70947 Mazunte, Oax., Mexico",273 116 3081,https://casalasalmas.com/,https://maps.google.com/?cid=3184757549711997662,4.7,53,N/A,N/A,Unknown,,ChIJDcQxPDwouYUR3rpTLh6IMiw
La Mora Posada,Restaurants,15.6657214,-96.5432903,"México 175 SN, 70947 San Agustinillo, Oax., Mexico",958 584 6422,http://www.lamoraposada.com/,https://maps.google.com/?cid=3173559783035419316,4.7,527,$$,Monday: 8:00 AM – 2:00 PM | Tuesday: Closed | Wednesday: 8:00 AM – 2:00 PM | Thursday: 8:00 AM – 2:00 PM | Friday: 8:00 AM – 2:00 PM | Saturday: 8:00 AM – 2:00 PM | Sunday: 8:00 AM – 2:00 PM,False,,ChIJbcUN3zYouYURtLpK9c6_Ciw
Sociedad Cooperativa Lagarto Real,Restaurants,15.669083,-96.575875,"Playa Ventanilla Santa María Tonameca, Ventanilla, 70947 Santa María Tonameca, Oax., Mexico",19581306895,https://www.facebook.com/lagartoreal.ventanilla,https://maps.google.com/?cid=17248415060201555768,4.7,547,N/A,Monday: 8:00 AM – 8:00 PM | Tuesday: 8:00 AM – 8:00 PM | Wednesday: 8:00 AM – 8:00 PM | Thursday: 8:00 AM – 8:00 PM | Friday: 8:00 AM – 8:00 PM | Saturday: 8:00 AM – 8:00 PM | Sunday: 8:00 AM – 8:00 PM,False,,ChIJwWFKVAgouYUROMfPeRyuXu8
Ofelia´s Inn,Restaurants,15.6629214,-96.5619949,"Cam. a Playa Mermejita s/n, 70947 Mazunte, Oax., Mexico",958 688 3976,https://ofelia.com.mx/,https://maps.google.com/?cid=6907150203804829156,4.4,86,N/A,N/A,Unknown,,ChIJpx27hRQouYUR5MUNxIMg218
Restaurante brisa,Restaurants,15.6649597,-96.5539211,"El mazunte Tonameca Pochutla Oaxaca Tonameca Pochutla, 70947 México, Oax., Mexico",N/A,N/A,https://maps.google.com/?cid=10577738218108638850,4.3,12,N/A,Monday: 8:00 AM – 10:00 PM | Tuesday: 8:00 AM – 10:00 PM | Wednesday: 8:00 AM – 10:00 PM | Thursday: 8:00 AM – 10:00 PM | Friday: 8:00 AM – 10:00 PM | Saturday: 8:00 AM – 10:00 PM | Sunday: 8:00 AM – 10:00 PM,False,,ChIJBxglqKcpuYURglZwud2sy5I
Palapa El Arbolito,Restaurants,15.6648622,-96.55396429999999,"Carey, 70947 Mazunte, Oax., Mexico",958 142 6543,N/A,https://maps.google.com/?cid=17181955934955250959,3.7,34,N/A,Monday: 8:00 AM – 6:30 PM | Tuesday: 8:00 AM – 6:30 PM | Wednesday: 8:00 AM – 6:30 PM | Thursday: 8:00 AM – 6:30 PM | Friday: 8:00 AM – 6:30 PM | Saturday: 8:00 AM – 6:30 PM | Sunday: 8:00 AM – 6:30 PM,False,,ChIJH2KF8z4ouYURDyVskeORcu4
Tropicu,Restaurants,15.6647925,-96.5539371,"calle principal rumbo a la playa cerca de javier ziga rios, 70949 Mazunte, Oax., Mexico",777 193 2964,N/A,https://maps.google.com/?cid=17259228645562199340,5,4,N/A,Monday: 8:00 AM – 2:00 PM | Tuesday: 8:00 AM – 2:00 PM | Wednesday: 8:00 AM – 2:00 PM | Thursday: 8:00 AM – 2:00 PM | Friday: 8:00 AM – 2:00 PM | Saturday: 8:00 AM – 2:00 PM | Sunday: 8:00 AM – 2:00 PM,False,,ChIJ5XAl244puYURLC37gwIZhe8
Palapa El Mazunte,Restaurants,15.6647361,-96.55427619999999,"Frente a playa principal Mazunte Playa principal, 70947 Mazunte, Oax., Mexico",55 3924 1128,https://m.facebook.com/story.php?story_fbid=951214531717107&id=129119520593283,https://maps.google.com/?cid=351598268330767238,4.1,198,N/A,Monday: 7:00 AM – 8:00 PM | Tuesday: 7:00 AM – 8:00 PM | Wednesday: 7:00 AM – 8:00 PM | Thursday: 7:00 AM – 8:00 PM | Friday: 7:00 AM – 8:00 PM | Saturday: 7:00 AM – 8:00 PM | Sunday: 7:00 AM – 8:00 PM,False,,ChIJpUW1G_4puYURhnN_H8Mg4QQ
La Vendimia,Cafes,15.6643121,-96.55586129999999,"Rinconcito localidad, 70949 Mazunte, Oax., Mexico",961 655 4759,N/A,https://maps.google.com/?cid=13426134512163889405,3.9,126,N/A,Monday: Open 24 hours | Tuesday: 4:00 – 11:00 PM | Wednesday: 4:00 – 11:00 PM | Thursday: Closed | Friday: 3:00 – 11:00 PM | Saturday: 4:00 – 11:00 PM | Sunday: 4:00 – 11:00 PM,True,,ChIJsTvQUykpuYUR_SAkQDQ2U7o
Umami - Barra de Cafe - Restaurante,Cafes,15.6666453,-96.5498843,"México 175 s/n, 70940 Mazunte, Oax., Mexico",N/A,https://umamisanagus.mx/,https://maps.google.com/?cid=13346226592908073568,4.8,244,N/A,Monday: 8:00 AM – 9:30 PM | Tuesday: 8:00 AM – 9:30 PM | Wednesday: 8:00 AM – 9:30 PM | Thursday: Closed | Friday: 8:00 AM – 9:30 PM | Saturday: 8:00 AM – 9:30 PM | Sunday: 8:00 AM – 9:30 PM,False,,ChIJSaTqwngpuYURYFoo-l9SN7k
Cafe Duva,Cafes,15.6667546,-96.5524167,"México 175 26, 70947 Mazunte, Oax., Mexico",477 413 5630,N/A,https://maps.google.com/?cid=16239745866915098385,4.3,38,N/A,N/A,Unknown,,ChIJ-a-H7DgpuYUREa8X-NIqX-E
Ícaro Café,Cafes,15.6665593,-96.5548675,"C. la Barrita, 70947 Mazunte, Oax., Mexico",444 223 2136,N/A,https://maps.google.com/?cid=1714579228533280027,4.9,214,N/A,Monday: Closed | Tuesday: 8:30 AM – 1:00 PM | Wednesday: 8:30 AM – 1:00 PM | Thursday: 8:30 AM – 1:00 PM | Friday: 8:30 AM – 1:00 PM | Saturday: 8:30 AM – 1:00 PM | Sunday: Closed,False,,ChIJvXXTt48puYURG039X7loyxc
Reverencia Cafe,Cafes,15.6661937,-96.5550796,"C. la Barrita, 70947 Mazunte, Oax., Mexico",N/A,https://www.instagram.com/reverenciacafe,https://maps.google.com/?cid=11587622134694830447,5,22,N/A,Monday: 8:00 AM – 3:00 PM | Tuesday: 8:00 AM – 3:00 PM | Wednesday: 8:00 AM – 3:00 PM | Thursday: 8:00 AM – 3:00 PM | Friday: 8:00 AM – 3:00 PM | Saturday: 8:00 AM – 3:00 PM | Sunday: 8:00 AM – 3:00 PM,False,,ChIJA8xONiApuYURb2HwCfCAz6A
Ronald's Coconut Stand,Cafes,15.6647405,-96.5556166,"C. la Barrita, 70947 Mazunte, Oax., Mexico",958 111 0263,N/A,https://maps.google.com/?cid=17109906630275239709,3.5,13,N/A,Monday: Open 24 hours | Tuesday: Open 24 hours | Wednesday: Open 24 hours | Thursday: Open 24 hours | Friday: Open 24 hours | Saturday: Open 24 hours | Sunday: Open 24 hours,True,,ChIJe7e3TzQpuYURHQ-olW2Zcu0
Orale Café,Cafes,15.6648944,-96.52518520000001,"C. las Casitas, Playa Zipolite, 70947 Arroyo tres, Oax., Mexico",958 117 7129,N/A,https://maps.google.com/?cid=17421884212371364825,4.8,623,$,Monday: 8:00 AM – 2:30 PM | Tuesday: Closed | Wednesday: Closed | Thursday: 8:00 AM – 2:30 PM | Friday: 8:00 AM – 2:30 PM | Saturday: 8:00 AM – 2:30 PM | Sunday: 8:00 AM – 2:30 PM,False,,ChIJtxmHAMcpuYUR2Zth1GL3xvE
El Cafecito,Cafes,15.666773,-96.55118089999999,"Avenida principal paseo del mazunte sin, A un lado de tienda palmira y verduleria lichita, Lote numero, 70946 Mazunte, Oax., Mexico",N/A,N/A,https://maps.google.com/?cid=17617677999187695667,4.4,60,N/A,Monday: 8:00 AM – 7:00 PM | Tuesday: 8:00 AM – 7:00 PM | Wednesday: 8:00 AM – 7:00 PM | Thursday: 8:00 AM – 7:00 PM | Friday: 8:00 AM – 7:00 PM | Saturday: 8:00 AM – 7:00 PM | Sunday: 8:00 AM – 7:00 PM,False,,ChIJs97W4jsouYURMxjMPMyQfvQ
Panchatantra Café Cultural,Cafes,15.6678166,-96.5535955,"Centro deportivo, 70947 Mazunte, Oax., Mexico",N/A,N/A,https://maps.google.com/?cid=883491629821042498,4.9,85,N/A,Monday: 12:00 – 11:00 PM | Tuesday: 12:00 – 11:00 PM | Wednesday: 12:00 – 11:00 PM | Thursday: 12:00 – 11:00 PM | Friday: 12:00 – 11:00 PM | Saturday: 12:00 – 11:00 PM | Sunday: 12:00 – 11:00 PM,False,,ChIJB8ZXU7EpuYURQp-D1fTKQgw
Doña Jose,Cafes,15.6669733,-96.55148009999999,"paseo del mazunte, 70946 Mazunte, Oax., Mexico",958 111 8429,https://www.facebook.com/Restaurante-DO%C3%91A-JOSE-524330681096300/,https://maps.google.com/?cid=1198626979255425396,5,16,N/A,Monday: 8:00 – 9:00 AM | Tuesday: 8:00 – 9:00 AM | Wednesday: 8:00 – 9:00 AM | Thursday: 8:00 – 9:00 AM | Friday: 8:00 – 9:00 AM | Saturday: 8:00 – 9:00 AM | Sunday: 8:00 AM – 6:00 AM,True,,ChIJj2S3bvUpuYURdBm4FONgohA
Restaurante Solsticio,Cafes,15.6690732,-96.57605769999999,"Ventanilla, 70947 Oax., Mexico",958 174 3884,N/A,https://maps.google.com/?cid=14709405756298907959,3.6,14,N/A,N/A,Unknown,,ChIJjSsFolApuYURN1FIAZpOIsw
RestoBar del Fondo,Cafes,15.6655611,-96.54417930000001,"Avenida principal, centro, 70947 San Agustinillo, Oax., Mexico",958 272 2860,N/A,https://maps.google.com/?cid=5726362099542346354,4.9,137,N/A,Monday: 4:00 – 10:30 PM | Tuesday: 4:00 – 10:30 PM | Wednesday: 4:00 – 10:30 PM | Thursday: 4:00 – 10:30 PM | Friday: 4:00 – 10:30 PM | Saturday: 4:00 – 10:30 PM | Sunday: 4:00 – 10:30 PM,False,,ChIJRTzqlU8puYURckp7bv0feE8
Doba,Cafes,15.6667705,-96.5503552,"Av. Paseo del Mazunte SN, 70946 Mazunte, Oax., Mexico",81 2521 8751,https://linktr.ee/doba.mazunte,https://maps.google.com/?cid=15909691854136139509,4.8,330,N/A,Monday: 8:00 AM – 3:30 PM | Tuesday: 8:00 AM – 3:30 PM | Wednesday: 8:00 AM – 3:30 PM | Thursday: 8:00 AM – 3:30 PM | Friday: 8:00 AM – 3:30 PM | Saturday: 8:00 AM – 3:30 PM | Sunday: 8:00 AM – 3:30 PM,False,,ChIJcR7uab0puYUR9d61u3KUytw
Restaurant Lupita,Cafes,15.6657989,-96.54616469999999,"México 175 141, 68130 Oaxaca de Juárez, Oax., Mexico",N/A,N/A,https://maps.google.com/?cid=396038952824056268,2.9,19,N/A,N/A,Unknown,,ChIJKbM6F5QpuYURzKlLTFQDfwU
Mayahuel,Cafes,15.6664166,-96.5559779,"Rinconcito, 70947 Mazunte, Oax., Mexico",N/A,N/A,https://maps.google.com/?cid=8955229552058143144,3.2,141,N/A,N/A,Unknown,,ChIJ11VyCj4ouYURqJGBrNRdR3w
El sueño de Frida,Cafes,15.6659511,-96.54644139999999,"Playa San Agustinillo, México 175 141, 70946 San Agustinillo, Oax., Mexico",55 1902 6359,N/A,https://maps.google.com/?cid=3943172371170350872,4.8,253,$,Monday: 8:00 AM – 3:00 PM | Tuesday: 8:00 AM – 3:00 PM | Wednesday: 8:00 AM – 3:00 PM | Thursday: 8:00 AM – 3:00 PM | Friday: 8:00 AM – 3:00 PM | Saturday: 8:00 AM – 3:00 PM | Sunday: Closed,False,,ChIJDXUjITcouYURGFe-N2H2uDY
Chirincoco Restaurant and Cafe,Cafes,15.6662024,-96.5440627,"C. Agustivino 10, 70947 San Agustinillo, Oax., Mexico",55 8561 0503,N/A,https://maps.google.com/?cid=10100946765231459172,4.7,63,N/A,Monday: Closed | Tuesday: Closed | Wednesday: Closed | Thursday: 8:30 AM – 1:30 PM | Friday: 8:30 AM – 1:30 PM | Saturday: 8:30 AM – 1:30 PM | Sunday: 8:30 AM – 1:30 PM,False,,ChIJCUMJtHApuYURZIvA3JDFLYw
Restaurante Cacao,Cafes,15.6666987,-96.5628852,"Camino de Mermejita Alta S/N, 70946 Mazunte, Oax., Mexico",951 319 8432,https://www.cocoliahotel.com/#gastronomia?utm_source=gmb&utm_medium=organic,https://maps.google.com/?cid=16778807848230807888,5,23,N/A,Monday: 8:00 AM – 10:30 PM | Tuesday: 8:00 AM – 10:30 PM | Wednesday: 8:00 AM – 10:30 PM | Thursday: 8:00 AM – 10:30 PM | Friday: 8:00 AM – 10:30 PM | Saturday: 8:00 AM – 10:30 PM | Sunday: 8:00 AM – 10:30 PM,False,,ChIJ0xm0AKUpuYURUGlVDNdM2ug
Nim San Agustinillo,Cafes,15.6661415,-96.54475920000002,"C. la Paz S/N, 70947 San Agustinillo, Oax., Mexico",N/A,N/A,https://maps.google.com/?cid=4408673865948258731,5,1,N/A,N/A,Unknown,,ChIJXw5omXopuYURq-Fk3oXBLj0
The trip (El viaje de Mar & Yeni),Cafes,15.6656677,-96.5558477,"El mazunte, Rinconcito, Palma Real, 70947 San Pedro Pochutla, Oax., Mexico",95800000,N/A,https://maps.google.com/?cid=683578449096826561,4.5,73,N/A,N/A,Unknown,,ChIJJRHAvm8puYURwV6HSvqOfAk
Tiburon Juice Bar,Juice Bars,15.6660847,-96.55581769999999,"calle rinconcito sin numero, mazunte, 70947 Mazunte, Oax., Mexico",81 1485 0305,https://www.facebook.com/eltiburonjuicebar/,https://maps.google.com/?cid=1596673924119442460,4.5,101,N/A,Monday: 8:00 AM – 3:30 PM | Tuesday: 8:00 AM – 3:30 PM | Wednesday: 8:00 AM – 3:30 PM | Thursday: 8:00 AM – 3:30 PM | Friday: 8:00 AM – 3:30 PM | Saturday: 8:00 AM – 3:30 PM | Sunday: 8:00 AM – 3:30 PM,False,,ChIJTyKHDD4ouYURHLREdXmGKBY
EL MAR,Bars,15.6638244,-96.55603389999999,"Calle Rinconcito Mazunte 68000 Mazunte, 70947 Oaxaca, Oax., Mexico",N/A,N/A,https://maps.google.com/?cid=9368934741570279713,3.7,3,N/A,Monday: 12:00 PM – 8:00 AM | Tuesday: 12:00 PM – 8:00 AM | Wednesday: 12:00 PM – 8:00 AM | Thursday: 12:00 PM – 10:00 AM | Friday: 12:00 PM – 10:00 AM | Saturday: 12:00 PM – 10:00 AM | Sunday: 12:00 PM – 8:00 AM,True,,ChIJ69NFEOgpuYURIdkcO4IkBYI
Wamba Cocktails Bar,Bars,15.6648378,-96.5543418,"70947 Mazunte, Oax., Mexico",N/A,N/A,https://maps.google.com/?cid=11121204102821690512,4.6,7,N/A,N/A,Unknown,,ChIJA84bt4spuYURkLxNdzV0Vpo
Bendita,Bars,15.6649668,-96.5560926,"Rinconcito s/n, 70946 Mazunte, Oax., Mexico",958 106 4624,N/A,https://maps.google.com/?cid=828951913208277854,4.8,33,N/A,Monday: Closed | Tuesday: Closed | Wednesday: 6:00 – 11:30 PM | Thursday: 6:00 – 11:30 PM | Friday: 6:00 – 11:30 PM | Saturday: 6:00 – 11:30 PM | Sunday: 6:00 – 11:30 PM,False,,ChIJIyBqreApuYURXuuogl8HgQs
La Bodega,Bars,15.6650372,-96.5558989,"Rinconcito, 70947 Mazunte, Oax., Mexico",N/A,N/A,https://maps.google.com/?cid=14702079068049606899,4.8,90,N/A,Monday: 8:00 AM – 11:00 PM | Tuesday: 8:00 AM – 11:00 PM | Wednesday: 8:00 AM – 11:00 PM | Thursday: 8:00 AM – 11:00 PM | Friday: 8:00 AM – 11:00 PM | Saturday: 8:00 AM – 11:00 PM | Sunday: Closed,False,,ChIJvQbjx_YpuYUR84jNdgRHCMw
Mezcaleria La punta,Bars,15.668763,-96.55739179999999,"México 175 26, 70947 Mazunte, Oax., Mexico",N/A,N/A,https://maps.google.com/?cid=7629768268180758716,5,1,N/A,N/A,Unknown,,ChIJSy8eDCEpuYURvCB2z9Bh4mk
Cocol Bar,Bars,15.6654904,-96.5535543,"Carey, 70947 Mazunte, Oax., Mexico",954 163 3394,N/A,https://maps.google.com/?cid=7221654060584408835,5,46,N/A,Monday: 9:00 AM – 10:00 PM | Tuesday: 9:00 AM – 10:00 PM | Wednesday: 9:00 AM – 10:00 PM | Thursday: 9:00 AM – 10:00 PM | Friday: 9:00 AM – 10:00 PM | Saturday: 9:00 AM – 10:00 PM | Sunday: 9:00 AM – 10:00 PM,False,,ChIJ-7HWvhIpuYURAxfkKxt4OGQ
Pura Vida Mazunte,Bars,15.6664343,-96.5556656,"70947 Mazunte, Oax., Mexico",N/A,N/A,https://maps.google.com/?cid=4233699340799487940,4.8,59,N/A,Monday: 8:00 AM – 11:00 PM | Tuesday: 8:00 AM – 11:00 PM | Wednesday: 8:00 AM – 11:00 PM | Thursday: 8:00 AM – 11:00 PM | Friday: 8:00 AM – 11:00 PM | Saturday: 8:00 AM – 11:00 PM | Sunday: 8:00 AM – 11:00 PM,False,,ChIJlbirI3spuYURxK8ojh4fwTo
El MAR,Bars,15.665341,-96.55256899999999,"Golfina, 70947 Mazunte, Oax., Mexico",N/A,N/A,https://maps.google.com/?cid=12012811989521560004,4,1,N/A,N/A,Unknown,,ChIJqScby_gpuYURxHH8nNsUtqY
M,Bars,15.6666646,-96.5500752,"Carretera estatal de San Antonio a puerto ángel, OAX / San Antonio, 70946 Mazunte, Oax., Mexico",N/A,N/A,https://maps.google.com/?cid=18281391137694305469,5,1,N/A,N/A,Unknown,,ChIJJ7gg9hYpuYURvUw-emGMtP0
TRIBU MAZUNTE,Bars,15.6680557,-96.5554537,"Avenida principal, 70947 Mazunte, Oax., Mexico",958 587 9786,https://web.facebook.com/Tribumazunte/?modal=admin_todo_tour,https://maps.google.com/?cid=8786262088273945882,4.5,410,N/A,Monday: 3:00 – 11:00 PM | Tuesday: 3:00 – 11:00 PM | Wednesday: 3:00 – 11:00 PM | Thursday: 3:00 – 11:00 PM | Friday: 2:00 – 11:00 PM | Saturday: 3:00 – 11:00 PM | Sunday: 3:00 – 11:00 PM,False,,ChIJcWa-h5wpuYURGuUMU9ES73k
Primo Costa,Bars,15.6677839,-96.55580289999999,"Rinconcito, 70947 Mazunte, Oax., Mexico",N/A,N/A,https://maps.google.com/?cid=9452778741752960800,5,26,N/A,Monday: 3:00 – 11:00 PM | Tuesday: 3:00 – 11:00 PM | Wednesday: Closed | Thursday: 3:00 – 11:00 PM | Friday: 3:00 – 11:00 PM | Saturday: 3:00 – 11:00 PM | Sunday: 3:00 – 11:00 PM,False,,ChIJK3JDECgpuYURIJeMwi4EL4M
Restaurant Bar Sol y Mar,Bars,15.6654196,-96.544023,"Calle Principal Supermanzana Adoquinado, 70946 San Agustinillo, Oax., Mexico",951 111 2825,https://www.facebook.com/SolYMarSanAgustinillo,https://maps.google.com/?cid=8863581654751322685,3.8,143,N/A,Monday: 8:00 AM – 5:30 PM | Tuesday: 8:00 AM – 5:30 PM | Wednesday: 8:00 AM – 5:30 PM | Thursday: 8:00 AM – 5:30 PM | Friday: 8:00 AM – 5:30 PM | Saturday: 8:00 AM – 5:30 PM | Sunday: 8:00 AM – 5:30 PM,False,,ChIJsywcc9spuYURPSIfwY3EAXs
La Palapa Cometa,Bars,15.6667245,-96.55589739999999,"70947, El rinconcito de Mazunte, 70947 Mazunte, Oax., Mexico",N/A,N/A,https://maps.google.com/?cid=5855042355350078467,4.7,767,N/A,Monday: 3:00 – 11:00 PM | Tuesday: 3:00 – 11:00 PM | Wednesday: 3:00 – 11:00 PM | Thursday: 3:00 – 11:00 PM | Friday: 3:00 – 11:00 PM | Saturday: 3:00 – 11:00 PM | Sunday: 3:00 – 11:00 PM,False,,ChIJWQU6rJ8puYURAwSCNwBKQVE
Aikia Restaurante Bar,Bars,15.6631654,-96.525319,"CALLE ARCO IRIS 4 Camaron Bay, Playa Zipolite, 70900 ARROYO EL TRES, Oax., Mexico",N/A,N/A,https://maps.google.com/?cid=12783894637133283222,4.3,13,N/A,Monday: 8:00 AM – 6:00 PM | Tuesday: 8:00 AM – 6:00 PM | Wednesday: 8:00 AM – 6:00 PM | Thursday: 8:00 AM – 6:00 PM | Friday: 8:00 AM – 6:00 PM | Saturday: 8:00 AM – 6:00 PM | Sunday: 8:00 AM – 6:00 PM,False,,ChIJuSicdMgpuYURlr9ZxHCEabE
Pacífica - Barecito de Playa,Bars,15.661414,-96.56018979999999,"Calle camino a, Cam. Mermejita SN, 70947 Mazunte, Oax., Mexico",N/A,N/A,https://maps.google.com/?cid=15102562968446686906,5,20,N/A,Monday: 10:30 AM – 9:00 PM | Tuesday: Closed | Wednesday: 10:30 AM – 9:00 PM | Thursday: 10:30 AM – 9:00 PM | Friday: 10:30 AM – 9:00 PM | Saturday: 10:30 AM – 9:00 PM | Sunday: 10:30 AM – 9:00 PM,False,,ChIJlSsFrZ4puYURutY7xAAVl9E
La Baguette,Bakeries,15.6661144,-96.5558083,"Rinconcito, 70947 Mazunte, Oax., Mexico",958 109 5599,N/A,https://maps.google.com/?cid=2020484169045884147,4.3,453,$,Monday: 7:00 AM – 10:00 PM | Tuesday: 7:00 AM – 10:00 PM | Wednesday: 7:00 AM – 10:00 PM | Thursday: 7:00 AM – 10:00 PM | Friday: 7:00 AM – 10:00 PM | Saturday: 7:00 AM – 10:00 PM | Sunday: 7:00 AM – 10:00 PM,False,,ChIJMfmXCz4ouYUR87xHkqUzChw
Magnolia Pasteleria,Bakeries,15.6679675,-96.55366269999999,"70947 Mazunte, Oax., Mexico",06 98 32 38 58,N/A,https://maps.google.com/?cid=3618734400152547847,5,2,N/A,N/A,Unknown,,ChIJc0Sd8NQpuYURBzKUmcNTODI
Panadería Artesanal La Farina (le fournil),Bakeries,15.6670274,-96.5470658,"Av principal Supermanzana camino entre la lavandería y el grillo, 70949 San Agustinillo, Oax., Mexico",55 3940 6028,https://www.instagram.com/lafarinasanagustinillo?igsh=Z2NpZjUzaXp4bGdl,https://maps.google.com/?cid=16559536681577564227,4.8,19,N/A,Monday: Closed | Tuesday: 8:30 AM – 1:00 PM | Wednesday: 8:30 AM – 1:00 PM | Thursday: 8:30 AM – 1:00 PM | Friday: 8:30 AM – 1:00 PM | Saturday: 8:30 AM – 1:00 PM | Sunday: Closed,False,,ChIJUS93A0spuYURQ0h7LuBKz-U
Empanadas Argentinas San Agustinillo,Bakeries,15.6655891,-96.54390939999999,"Carretera principal hacia Mazunte s/n San Agustinillo, 70946 San Agustinillo, Oax., Mexico",958 118 3248,N/A,https://maps.google.com/?cid=8776638753170613135,4.6,14,N/A,Monday: Closed | Tuesday: Closed | Wednesday: 2:00 – 9:00 PM | Thursday: 2:00 – 9:00 PM | Friday: 2:00 – 9:00 PM | Saturday: 2:00 – 9:00 PM | Sunday: 2:00 – 9:00 PM,False,,ChIJoze4_8opuYURj2OpBHLizHk
El Gecko Mazunte,Bakeries,15.6649974,-96.5561097,"Rinconcito 70947, 70948 Mazunte, Oax., Mexico",N/A,N/A,https://maps.google.com/?cid=11299746060388948330,4.8,88,N/A,Monday: 12:30 – 10:00 PM | Tuesday: 12:30 – 10:30 PM | Wednesday: 12:30 – 10:00 PM | Thursday: 12:30 – 10:00 PM | Friday: 12:30 – 10:00 PM | Saturday: 12:30 – 10:00 PM | Sunday: 12:30 – 10:30 PM,False,,ChIJkwqT-J0puYURalmaXSzD0Jw
Las Delicias de Ale y Clau,Bakeries,15.6766633,-96.56863589999999,"México 175 sn, El Zapotal, 70947 Oax., Mexico",958 122 0700,N/A,https://maps.google.com/?cid=16026009239961324052,N/A,N/A,N/A,Monday: Closed | Tuesday: 8:00 AM – 5:00 PM | Wednesday: 8:00 AM – 5:00 PM | Thursday: 8:00 AM – 5:00 PM | Friday: 8:00 AM – 5:00 PM | Saturday: 8:00 AM – 5:00 PM | Sunday: 8:00 AM – 5:00 PM,False,,ChIJ2U51gFMpuYURFMoFi37SZ94
El Café de la Luz,Bakeries,15.6647822,-96.5558495,"Rinconcito, 70946 Mazunte, Oax., Mexico",322 348 4276,N/A,https://maps.google.com/?cid=286853605493083512,4.7,41,N/A,N/A,Unknown,,ChIJB5NTkiQpuYUReI30mdUb-wM
Hridaya Yoga,Yoga Studios,15.6666347,-96.5484559,"Hridaya Yoga Center, 70949 Mazunte, Oax., Mexico",958 688 5889,http://www.hridaya-yoga.com/,https://maps.google.com/?cid=16695909594905015257,4.8,121,N/A,Monday: 8:00 AM – 3:30 PM | Tuesday: 8:00 AM – 3:30 PM | Wednesday: 8:00 AM – 3:30 PM | Thursday: 8:00 AM – 3:30 PM | Friday: 8:00 AM – 3:30 PM | Saturday: 9:00 AM – 3:30 PM | Sunday: Closed,False,,ChIJ_dB3OTwouYUR2XNZXlHJs-c
Kairos Studio,Yoga Studios,15.6668577,-96.552881,"avenida principal, Golfina, 70947 Mazunte, Oax., Mexico",N/A,N/A,https://maps.google.com/?cid=14085685024745991148,5,7,N/A,Monday: 8:00 AM – 9:00 PM | Tuesday: 8:00 AM – 9:00 PM | Wednesday: 8:00 AM – 9:00 PM | Thursday: 8:00 AM – 9:00 PM | Friday: 8:00 AM – 9:00 PM | Saturday: 8:00 AM – 9:00 PM | Sunday: 8:00 AM – 9:00 PM,False,,ChIJ5xjXfqUpuYUR7CsGnuZnesM
"Akasha Yoga, Dance and Martial Arts",Yoga Studios,15.6668676,-96.5478884,"Carretera Principal Mazunte - San Agustinillo, 70947 Mazunte, Oax., Mexico",951 509 7114,N/A,https://maps.google.com/?cid=10178176862124644214,5,10,N/A,Monday: 8:00 AM – 8:00 PM | Tuesday: 8:00 AM – 8:00 PM | Wednesday: 8:00 AM – 8:00 PM | Thursday: 8:00 AM – 8:00 PM | Friday: 8:00 AM – 8:00 PM | Saturday: 8:00 AM – 8:00 PM | Sunday: 8:00 AM – 8:00 PM,False,,ChIJ89Mm_VwpuYURdhcKCO4lQI0
Meditation Station,Yoga Studios,15.6665628,-96.54993990000001,"Calle Principal SN, entre el Museo de la Tortuga y Hridaya Yoga, 70947 Mazunte, Oax., Mexico",958 144 6080,http://www.mazuntehealing.com/,https://maps.google.com/?cid=3978851697232622911,4.9,79,N/A,Monday: 8:00 AM – 6:00 PM | Tuesday: 8:00 AM – 6:00 PM | Wednesday: 8:00 AM – 6:00 PM | Thursday: 8:00 AM – 6:00 PM | Friday: 8:00 AM – 6:00 PM | Saturday: 8:00 AM – 6:00 PM | Sunday: 8:00 AM – 6:00 PM,False,,ChIJH8_w3lspuYURP7WCq4m4Nzc
Semanawak Temazcal & Yoga,Yoga Studios,15.6668396,-96.55280379999999,"Av.Paseo del Mazunte sin, frente a la esquina poniente del Centro Mexicano de la Tortuga en, Supermanzana número, 70947 Mazunte, Oax., Mexico",958 122 9816,https://instagram.com/semanawakmazunte?igshid=YmMyMTA2M2Y=,https://maps.google.com/?cid=14557798422577930970,4.8,23,N/A,Monday: 8:00 AM – 6:00 PM | Tuesday: 8:00 AM – 6:00 PM | Wednesday: 8:00 AM – 6:00 PM | Thursday: 8:00 AM – 6:00 PM | Friday: 8:00 AM – 6:00 PM | Saturday: 8:00 AM – 6:00 PM | Sunday: 8:00 AM – 6:00 PM,False,,ChIJ28k7mkApuYUR2uJ_6YiwB8o
Solstice Yoga Center,Yoga Studios,15.6660379,-96.5448298,"Cabañas Las Tres Marías, 70947 San Agustinillo, Oax., Mexico",N/A,https://restorativealignment.com/,https://maps.google.com/?cid=4849119337103747258,N/A,N/A,N/A,N/A,Unknown,,ChIJ850AODcouYURuuiLaViIS0M
Kinam Mazunte,Yoga Studios,15.6688677,-96.5538273,"al lado de Posada la Huerta, Camino Al Alguaje S/N, 70947 Mazunte, Oax., Mexico",958 106 8640,N/A,https://maps.google.com/?cid=2000919200363834705,N/A,N/A,N/A,Monday: 8:00 AM – 8:00 PM | Tuesday: 8:00 AM – 8:00 PM | Wednesday: 8:00 AM – 8:00 PM | Thursday: 8:00 AM – 8:00 PM | Friday: 8:00 AM – 8:00 PM | Saturday: 8:00 AM – 8:00 PM | Sunday: 8:00 AM – 8:00 PM,False,,ChIJDUDJbMUpuYURUe3xUWmxxBs
La Nada Mazunte,Yoga Studios,15.6724634,-96.5598596,"Carretara Mazunte - Ventanilla El Mirador, 70947 Mazunte, Oax., Mexico",442 452 7717,https://www.facebook.com/La-Nada-100151065005292/,https://maps.google.com/?cid=9524414170454386567,4.8,109,N/A,Monday: Open 24 hours | Tuesday: Open 24 hours | Wednesday: Open 24 hours | Thursday: Open 24 hours | Friday: Open 24 hours | Saturday: Open 24 hours | Sunday: Open 24 hours,True,,ChIJp5Se7dwpuYURh2ehuzmELYQ
Las Lemurias,Yoga Studios,15.6623802,-96.5589518,"Calle Punta cometa, Cam. a Playa Mermejita 9-9, 70949 Mazunte, Oax., Mexico",958 219 8204,N/A,https://maps.google.com/?cid=9003537667789095996,5,4,N/A,Monday: 8:00 AM – 9:00 PM | Tuesday: 8:00 AM – 9:00 PM | Wednesday: 8:00 – 9:00 AM | Thursday: 8:00 AM – 9:00 PM | Friday: 8:00 AM – 9:00 PM | Saturday: 8:00 AM – 9:00 PM | Sunday: 8:00 AM – 9:00 PM,False,,ChIJ542LC2wpuYURPARrWs798nw
Centro Nijo,Yoga Studios,15.6855569,-96.5700943,"Carretera San Antonio - Mazunte s/n Comunidad El Zapotal, 70946 Santa María Tonameca, Oax., Mexico",958 100 8420,http://www.centronijo.com/,https://maps.google.com/?cid=9351913950298765522,4.9,21,N/A,Monday: Closed | Tuesday: 10:00 AM – 2:00 PM | Wednesday: 10:00 AM – 2:00 PM | Thursday: 10:00 AM – 2:00 PM | Friday: 10:00 AM – 2:00 PM | Saturday: 10:00 AM – 2:00 PM | Sunday: Closed,False,,ChIJj-y0pv3XuIUR0viTcTCsyIE
Bliss Haven Retreat Centre & Hotel,Yoga Studios,15.6677938,-96.55081849999999,"C. Tamarindos S/N, 70947 Mazunte, Oax., Mexico",958 128 8226,http://www.blisshaven.yoga/,https://maps.google.com/?cid=91887312529474445,4.4,23,N/A,N/A,Unknown,,ChIJg_WqUAopuYURjUOvHgZzRgE
Posada Rancho Cerro Largo,Yoga Studios,15.6649022,-96.5356066,"San Agustinilllo S/N, Col. Playa Aragón, 70946 Santa María Tonameca, Oax., Mexico",N/A,https://ranchocerrolargo.wixsite.com/ranchocerrolargo,https://maps.google.com/?cid=2374948082675943305,4.8,68,N/A,N/A,Unknown,,ChIJL0qWK8spuYURiQflu7KC9SA
Mitotecali Danza y Yoga,Yoga Studios,15.6683965,-96.5571047,"Av. Principal Mazunte, Frente al mercado Orgánico de los domingos, frente de Restaurant la Empada, Supermanzana En, 70947 Mazunte, Oax., Mexico",958 128 0944,https://www.facebook.com/Mitote_cali2022,https://maps.google.com/?cid=15505051203931523553,4.3,12,N/A,Monday: 8:00 AM – 8:00 PM | Tuesday: 8:00 AM – 8:00 PM | Wednesday: 8:00 AM – 8:00 PM | Thursday: 8:00 AM – 8:00 PM | Friday: 8:00 AM – 8:00 PM | Saturday: 8:00 AM – 8:00 PM | Sunday: 8:00 AM – 8:00 PM,False,,ChIJ_zZiTTkpuYUR4cmUsusBLdc
El Grillo,Yoga Studios,15.6677919,-96.5556763,"Rinconcito Supermanzana en, 70947 Mazunte, Oax., Mexico",N/A,N/A,https://maps.google.com/?cid=4568006826491347185,4.3,23,N/A,Monday: 7:00 AM – 10:00 PM | Tuesday: 7:00 AM – 10:00 PM | Wednesday: 7:00 AM – 10:00 PM | Thursday: 7:00 AM – 10:00 PM | Friday: 7:00 AM – 10:00 PM | Saturday: 7:00 AM – 10:00 PM | Sunday: 9:00 AM – 3:00 PM,False,,ChIJrXVPrQ4puYUR8YCToAHSZD8
Masaje con sentido,Yoga Studios,15.6669805,-96.5559444,"frente a ""Puro corazón, Rinconcito s/n, 70947 Mazunte, Oax., Mexico",N/A,N/A,https://maps.google.com/?cid=9967790719145314560,4.9,118,N/A,Monday: 10:00 AM – 9:00 PM | Tuesday: 10:00 AM – 9:00 PM | Wednesday: 10:00 AM – 9:00 PM | Thursday: 10:00 AM – 9:00 PM | Friday: 10:00 AM – 9:00 PM | Saturday: 10:00 AM – 9:00 PM | Sunday: 10:00 AM – 9:00 PM,False,,ChIJlcokAeApuYURAIkX8ti0VIo
Restorative Yoga Backmitra,Yoga Studios,15.6657781,-96.5493817,"Cerrada del Museo S/N, 70946, 70947 Mazunte, Oax., Mexico",011 15-5619-1151,N/A,https://maps.google.com/?cid=11861908875357157314,N/A,N/A,N/A,N/A,Unknown,,ChIJgcwWnbMpuYURwne3aUb3naQ
CAMP,Yoga Studios,15.6648691,-96.5248216,"C. las Casitas 51, Playa Zipolite, 70947 Arroyo Tres, Oax., Mexico",N/A,https://camp.mx/,https://maps.google.com/?cid=9731073114288166711,4.6,73,N/A,Monday: Open 24 hours | Tuesday: Open 24 hours | Wednesday: Open 24 hours | Thursday: Open 24 hours | Friday: Open 24 hours | Saturday: Open 24 hours | Sunday: Open 24 hours,True,,ChIJwWSaKcYpuYURNxeApHC3C4c
Las Tres Marias,Yoga Studios,15.6663151,-96.5449573,"San Agustinillo, 70946 Oax., Mexico",958 100 4044,N/A,https://maps.google.com/?cid=8881688992873930557,4.4,154,N/A,N/A,Unknown,,ChIJNfNZQTcouYURPV-_8RQZQns
OSTEOPATH MAZUNTE,Yoga Studios,15.66706,-96.5481406,"Carretera Principal Mazunte - San Agustinillo, 70947 Mazunte, Oax., Mexico",951 509 7114,http://www.osteopathyakasha.com/,https://maps.google.com/?cid=8153170506119288821,5,93,N/A,Monday: Open 24 hours | Tuesday: Open 24 hours | Wednesday: Open 24 hours | Thursday: Open 24 hours | Friday: Open 24 hours | Saturday: Open 24 hours | Sunday: Open 24 hours,True,,ChIJvSAb35spuYUR9ZduwmDhJXE
The Santosha Refuge,Yoga Studios,15.667776,-96.55085170000001,"C. Tamarindos S/N, 70947 Mazunte, Oax., Mexico",958 128 8226,https://www.thesantosharefuge.com/,https://maps.google.com/?cid=17493832032796720027,5,2,N/A,N/A,Unknown,,ChIJz09XyX8puYURm7syK4yTxvI
euritmia,Massage & Spa,15.6676798,-96.55453999999999,"tegochines sn, 70947 Mazunte, Oax., Mexico",81 2395 3542,N/A,https://maps.google.com/?cid=16859395066452954211,5,3,N/A,Monday: Open 24 hours | Tuesday: Open 24 hours | Wednesday: Open 24 hours | Thursday: Open 24 hours | Friday: Open 24 hours | Saturday: Open 24 hours | Sunday: Open 24 hours,True,,ChIJhQ2gEsYpuYURY8zm73ya-Ok
Haircuts Diana,Massage & Spa,15.667555,-96.5572942,"Calle Bugambilias 7, 70946 Mazunte, Oax., Mexico",984 144 1043,N/A,https://maps.google.com/?cid=3652241453808398209,5,7,N/A,Monday: Open 24 hours | Tuesday: Open 24 hours | Wednesday: Open 24 hours | Thursday: Open 24 hours | Friday: Open 24 hours | Saturday: Open 24 hours | Sunday: Open 24 hours,True,,ChIJsZq1EJMpuYURga80eEBerzI
SPA TAMARINDO,Massage & Spa,15.6665029,-96.5235616,"arroyo 3, Playa Zipolite, 70947 zipolite, Oax., Mexico",55 5987 2698,N/A,https://maps.google.com/?cid=11751658849254726125,4.5,8,N/A,Monday: 9:00 AM – 7:00 PM | Tuesday: 9:00 AM – 7:00 PM | Wednesday: 9:00 AM – 7:00 PM | Thursday: 9:00 AM – 7:00 PM | Friday: 9:00 AM – 7:00 PM | Saturday: 9:00 AM – 7:00 PM | Sunday: Closed,False,,ChIJaxugQYspuYUR7Vln33VHFqM
Masajes Espacio Terapéutico Casa San Agus,Massage & Spa,15.6659551,-96.546075,"Calle principal sn, San Agustinillo, 70946 San Agustinillo, Oax., Mexico",958 111 0251,https://www.facebook.com/profile.php?id=100086669983874,https://maps.google.com/?cid=15566987861799495491,4.6,14,N/A,Monday: 10:00 AM – 6:00 PM | Tuesday: 10:00 AM – 6:00 PM | Wednesday: 10:00 AM – 6:00 PM | Thursday: 10:00 AM – 6:00 PM | Friday: 10:00 AM – 6:00 PM | Saturday: 10:00 AM – 6:00 PM | Sunday: Closed,False,,ChIJFX-5pxgpuYURQ2dgnfsMCdg
Kalli massages & Energy healing,Massage & Spa,15.6616753,-96.5600865,"Cam. a Playa Mermejita, 70947 Mazunte, Oax., Mexico",55 2863 0623,https://www.astralkalli.com/,https://maps.google.com/?cid=844802958337017458,5,24,N/A,Monday: 10:00 AM – 9:00 PM | Tuesday: 10:00 AM – 9:00 PM | Wednesday: 10:00 AM – 9:00 PM | Thursday: 10:00 AM – 9:00 PM | Friday: 10:00 AM – 9:00 PM | Saturday: 10:00 AM – 9:00 PM | Sunday: 9:00 AM – 5:00 PM,False,,ChIJQ_b8KQYpuYURcobgjNBXuQs
Cranial Bliss Therapy Massage with Aimee,Massage & Spa,15.6666494,-96.54582459999999,"Calle Principal, 70947 San Agustinillo, Oax., Mexico",0210 661 826,https://www.aimsinlove.com/,https://maps.google.com/?cid=10263782846785916564,N/A,N/A,N/A,Monday: 9:00 AM – 4:00 PM | Tuesday: 9:00 AM – 4:00 PM | Wednesday: 9:00 AM – 4:00 PM | Thursday: 9:00 AM – 4:00 PM | Friday: 9:00 AM – 4:00 PM | Saturday: 9:00 AM – 4:00 PM | Sunday: 9:00 AM – 4:00 PM,False,,ChIJAV7hKecpuYURlA5sih5IcI4
Cocodrilo Enamorado Mazunte,Massage & Spa,15.6769542,-96.565606,"Km 175 Rumbo a Mazunte, 70946 Pochutla, Oax., Mexico",958 118 6239,N/A,https://maps.google.com/?cid=4406816702921284161,5,5,N/A,Monday: 9:00 AM – 11:00 PM | Tuesday: 9:00 AM – 11:00 PM | Wednesday: 9:00 AM – 11:00 PM | Thursday: 9:00 AM – 11:00 PM | Friday: 9:00 AM – 11:00 PM | Saturday: 9:00 AM – 11:00 PM | Sunday: 9:00 AM – 3:00 PM,False,,ChIJMYT5tDEpuYURQZrhZ3EoKD0
Zazil Retreat,Massage & Spa,15.6685859,-96.5435529,"Unnamed Road, 70947 San Agustinillo, Oax., Mexico",55 1191 3964,http://zazilretreat.com/,https://maps.google.com/?cid=3765550403382682310,4.1,67,N/A,N/A,Unknown,,ChIJ4YXz8DAouYURxiJ0ISTsQTQ
"Posada ""El Titanic""",Wellness Centers,15.6667884,-96.555802,"Rinconcito SN, 70947 Mazunte, Oax., Mexico",958 107 3090,N/A,https://maps.google.com/?cid=12355223765057102279,5,5,N/A,N/A,Unknown,,ChIJIeCFQbYpuYURx2GxtI2Sdqs
Casa de los Magos,Wellness Centers,15.6699086,-96.5767793,"Camino al Manglar, 70947 La Ventanilla, Oax., Mexico",55 1511 6170,N/A,https://maps.google.com/?cid=14324640992101023061,5,2,N/A,N/A,Unknown,,ChIJswhe0wIpuYURVT0uTRZZy8Y
Mukti Bukti,Wellness Centers,15.6659039,-96.5303763,"Cam. Aragón, 70947 Oax., Mexico",222 215 3317,http://www.experienciaswellness.io/,https://maps.google.com/?cid=764290646044255936,5,2,N/A,Monday: Open 24 hours | Tuesday: Open 24 hours | Wednesday: Open 24 hours | Thursday: Open 24 hours | Friday: Open 24 hours | Saturday: Open 24 hours | Sunday: Open 24 hours,True,,ChIJ3UO4o4MpuYURwCafDktOmwo
Tantra Ritual,Wellness Centers,15.6670213,-96.5485502,"Ctra. Mazunte – San Agustinillo s/n, 70947 Mazunte, Oax., Mexico",N/A,https://tantraritual.com/,https://maps.google.com/?cid=1856666786795060624,N/A,N/A,N/A,N/A,Unknown,,ChIJPaefTRcpuYURkH0vBZs0xBk
Equilia: Medicina Integrativa,Wellness Centers,15.6669117,-96.5510989,"calle principal sin numero, 70946 Mazunte, Oax., Mexico",55 5964 6412,N/A,https://maps.google.com/?cid=15105351514518473944,5,22,N/A,Monday: 11:00 AM – 4:00 PM | Tuesday: 11:00 AM – 4:00 PM | Wednesday: 11:00 AM – 4:00 PM | Thursday: 11:00 AM – 4:00 PM | Friday: 11:00 AM – 4:00 PM | Saturday: Closed | Sunday: Closed,False,,ChIJeaFssPkpuYUR2ExIviv9oNE
Aguila Blanca Reiki,Healing Centers,15.6694819,-96.5555176,"S/N, 70946 Mazunte, Oax., Mexico",958 115 0700,https://aguilablancaweb.wixsite.com/website,https://maps.google.com/?cid=15374216545899669230,4.8,24,N/A,"Monday: 9:00 AM – 1:00 PM, 4:00 – 6:00 PM | Tuesday: 9:00 AM – 1:00 PM, 4:00 – 6:00 PM | Wednesday: 9:00 AM – 1:00 PM, 4:00 – 6:00 PM | Thursday: 4:00 AM – 6:00 PM | Friday: 9:00 AM – 1:00 PM, 4:00 – 6:00 PM | Saturday: 4:00 AM – 6:00 PM | Sunday: Closed",False,,ChIJ90SKFIYpuYUR7mZIDn4wXNU
Private Bufo Alvarius Ceremonies & Retreats - Isa Lucia,Healing Centers,15.6698027,-96.53881109999999,"Colonia la laja por el arroyo, 70947 San Agustinillo, Oax., Mexico",55 2092 6420,https://isalucia.com/?utm_source=gmb&utm_medium=referral&utm_campaign=gmbg,https://maps.google.com/?cid=4346430262448573522,4.9,14,N/A,Monday: 9:00 AM – 5:00 PM | Tuesday: 9:00 AM – 5:00 PM | Wednesday: 9:00 AM – 5:00 PM | Thursday: 9:00 AM – 5:00 PM | Friday: 9:00 AM – 5:00 PM | Saturday: 9:00 AM – 5:00 PM | Sunday: 9:00 AM – 5:00 PM,False,,ChIJdz0_6fQpuYURUkxBmkufUTw
Healing Hut,Healing Centers,15.6654204,-96.5424896,"Avenida, 70947 San Agustinillo, Oax., Mexico",958 173 7274,N/A,https://maps.google.com/?cid=5904665761096966823,N/A,N/A,N/A,N/A,Unknown,,ChIJnQL-kz8puYURp6KYtzmW8VE
Celeste del Mar,Hotels & Hostels,15.6623705,-96.55987789999999,"Cam. a Playa Mermejita S/N, 70946 ﻿Mazunte, Oax., Mexico",958 107 5296,N/A,https://maps.google.com/?cid=15950221897609060339,4.3,41,N/A,N/A,Unknown,,ChIJtwYc2BQouYUR8x-l106SWt0
Un Sueño Cabañas del Pacifico,Hotels & Hostels,15.6658112,-96.5430081,"70940 San Agustinillo, Oax., Mexico",958 113 8749,http://www.unsueno.mx/,https://maps.google.com/?cid=16101510084385722326,4.5,405,N/A,N/A,Unknown,,ChIJgfyJ5zYouYUR1k8uvxwOdN8
Casa Pan de Miel,Hotels & Hostels,15.6652708,-96.5487442,"Cda. Museo de la Tortuga s/n, 70946 Mazunte, Oax., Mexico",958 100 4719,N/A,https://maps.google.com/?cid=7796760992287052076,4.7,247,N/A,N/A,Unknown,,ChIJB9_AXjsouYURLFHkP9CoM2w
Casa Mermejita,Hotels & Hostels,15.6631206,-96.559382,"Cam. a Playa Mermejita s/n, 70947 Mazunte, Oax., Mexico",958 106 0700,http://casamermejita.com/,https://maps.google.com/?cid=8692960969257342926,4.2,101,N/A,N/A,Unknown,,ChIJJTqvBhUouYURzlfruvGZo3g
Zoa Hotel,Hotels & Hostels,15.6657921,-96.5493772,"Cerrada Del Museo De La Tortuga S/N, 70946 Mazunte, Oax., Mexico",958 187 0347,N/A,https://maps.google.com/?cid=14784195012160882248,4.4,200,N/A,Monday: Open 24 hours | Tuesday: Open 24 hours | Wednesday: Open 24 hours | Thursday: Open 24 hours | Friday: Open 24 hours | Saturday: Open 24 hours | Sunday: Open 24 hours,True,,ChIJARIkXjcouYURSIbzlQgDLM0
Posada Arigalan,Hotels & Hostels,15.6659442,-96.54890309999999,"Cerrada del Museo S/N, 70946 Mazunte, Oax., Mexico",958 111 3383,http://www.arigalan.com/,https://maps.google.com/?cid=16455593899919454622,4.6,108,N/A,N/A,Unknown,,ChIJ9YjanDkouYURnrHIbHcDXuQ
Casa Sérénité,Hotels & Hostels,15.6649956,-96.55722329999999,"Cam. Mermejita, 70947 Mazunte, Oax., Mexico",19581079990,N/A,https://maps.google.com/?cid=17002353914657475116,5,1,N/A,N/A,Unknown,,ChIJqZfI9BUouYURLIqhlM1-9Os
Hotel El Copal,Hotels & Hostels,15.6620785,-96.55970239999999,"Calle del Panteón, Cam. Mermejita s/n, 70946 Mazunte, Oax., Mexico",55 5616 1144,N/A,https://maps.google.com/?cid=12452767444466263220,4.3,272,N/A,Monday: 7:00 AM – 10:30 PM | Tuesday: 7:00 AM – 10:30 PM | Wednesday: 7:00 AM – 10:30 PM | Thursday: 7:00 AM – 10:30 PM | Friday: 7:00 AM – 10:30 PM | Saturday: 7:00 AM – 10:30 PM | Sunday: 7:00 AM – 10:30 PM,False,,ChIJu5hHGhQouYURtOT1XQMe0aw
Casa Corazon Mazunte,Hotels & Hostels,15.6654885,-96.55557259999999,"Palma Real S/N, 06760 Mazunte, Oax., Mexico",983 168 5584,http://www.corazonmazunte.com/,https://maps.google.com/?cid=1617579656282055304,3.9,58,N/A,N/A,Unknown,,ChIJ8fobbT4ouYURiCKXiCDMchY
OceanoMar,Hotels & Hostels,15.6637583,-96.55976869999999,"Cam. a Playa Mermejita, 70946 Mazunte, Oax., Mexico",19585876232,https://www.oceanomar.com/,https://maps.google.com/?cid=11079794995737856550,4.7,119,N/A,N/A,Unknown,,ChIJxVBY-xQouYURJgobadhWw5k
Posada Paloma,Hotels & Hostels,15.6664341,-96.5422239,"Calle Principal s/n, 70940 San Agustinillo, Oax., Mexico",(514) 237-9708,http://posadapaloma.tuhotel.com.mx/,https://maps.google.com/?cid=14833324201582381874,4.6,91,N/A,N/A,Unknown,,ChIJoZTM2DYouYURMsuFYcWN2s0
Las Cabanas Magicas,Hotels & Hostels,15.6665892,-96.5438423,"Calle principal, San Agustinillo, 70947 San Agustinillo, Oax., Mexico",958 115 3775,http://booking.com/hotel/mx/las-cabanas-magicas.html,https://maps.google.com/?cid=14412023068443241146,4.5,15,N/A,N/A,Unknown,,ChIJRayZR0spuYURumpLYZ_KAcg
Cabañas Ventanilla,Hotels & Hostels,15.6696169,-96.5762206,"Supermanzana Ventanilla, 70947 Oax., Mexico",958 220 5797,N/A,https://maps.google.com/?cid=44432582156611475,4.6,80,N/A,Monday: 8:00 AM – 7:00 PM | Tuesday: 8:00 AM – 7:00 PM | Wednesday: 8:00 AM – 7:00 PM | Thursday: 8:00 AM – 7:00 PM | Friday: 8:00 AM – 7:00 PM | Saturday: 8:00 AM – 7:00 PM | Sunday: 8:00 AM – 7:00 PM,False,,ChIJF0Aq_-wpuYURk-_lszLbnQA
Posada Nautica,Hotels & Hostels,15.6669529,-96.552281,"Privada las Tortuguitas S/N, 70947 Mazunte, Oax., Mexico",12291111129,N/A,https://maps.google.com/?cid=17408167548846320100,4.5,43,N/A,N/A,Unknown,,ChIJt_XzrD4ouYUR5Kl3Oyc8lvE
Posada Arrecife,Hotels & Hostels,15.6681059,-96.5544082,"cam. a la Aguaje s/n a un costado de la Av. principal al pasar el puente, 70947 Mazunte, Oax., Mexico",998 407 9745,N/A,https://maps.google.com/?cid=6007575874830683232,4,2,N/A,N/A,Unknown,,ChIJ5ya3NTwouYURYEx9vG0yX1M
Posada del Arquitecto,Hotels & Hostels,15.664174,-96.5555945,"Andador Rinconcito Colonia Rinconcito, Rinconcito, 70946 Mazunte, Oax., Mexico",958 113 9744,http://www.posadadelarquitecto.com/,https://maps.google.com/?cid=5817151471655965522,4.2,1096,N/A,N/A,Unknown,,ChIJPVv8SD4ouYURUtOxYHGsulA
"OYO Cabañas Abril, Mazunte",Hotels & Hostels,15.668013,-96.5565963,"Avenida Principal, Ocotillo S/N, 70902 Mazunte, Oax., Mexico",222 690 3543,https://www.oyorooms.com/MX/99918/?utm_source=GMB_MX&utm_medium=Organic&utm_campaign=MX_SANE001&latitude=15.6680205155555&longitude=-96.5566017664968&locale=es,https://maps.google.com/?cid=2450556521147318065,3.5,374,N/A,N/A,Unknown,,ChIJIxe5jD0ouYURMb8AISwgAiI
Posada Olivo,Hotels & Hostels,15.6676071,-96.5480503,"Barrio el Organo sn a 50m desde la carretera federal n.175, 70947 Mazunte, Oax., Mexico",958 117 3796,N/A,https://maps.google.com/?cid=17438625894079233606,5,67,N/A,N/A,Unknown,,ChIJB-lYPDoouYURRn6FW9txAvI
El rinconcito de Mazunte,Hotels,15.6652806,-96.5560581,"Rinconcito s/n, 70947 Mazunte, Oax., Mexico",958 107 6347,https://www.hotelrinconcitodemazunte.com/,https://maps.google.com/?cid=10270356839110662737,4.3,517,$$,Monday: 8:00 AM – 11:00 PM | Tuesday: 8:00 AM – 11:00 PM | Wednesday: 8:00 AM – 11:00 PM | Thursday: 8:00 AM – 11:00 PM | Friday: 8:00 AM – 11:00 PM | Saturday: 8:00 AM – 11:00 PM | Sunday: 8:00 AM – 11:00 PM,False,,ChIJK2IMvSopuYURUdqxZyGjh44
Cabins Balamjuyuc,Hotels,15.6638031,-96.55700279999999,"cerro del panteon, Cam. a Punta Cometa s/n, 70946 Mazunte, Oax., Mexico",958 583 7667,https://www.balamjuyucmazunte.com/,https://maps.google.com/?cid=17314473496507263600,4,274,N/A,Monday: 1:00 AM – 12:00 AM | Tuesday: 1:00 AM – 12:00 AM | Wednesday: 1:00 AM – 12:00 AM | Thursday: 1:00 AM – 12:00 AM | Friday: 1:00 AM – 12:00 AM | Saturday: 1:00 AM – 12:00 AM | Sunday: 1:00 AM – 12:00 AM,True,,ChIJ-ytzCUAouYURcCo7uOhdSfA
Hotel Cristal Mazunte,Hotels,15.6700263,-96.5514249,"AV ARROYO 24 F JAVIER MINA A L MATEOS, 70949 Mazunte, Oax., Mexico",958 187 8587,https://www.hotelcasacristal.com/,https://maps.google.com/?cid=15336117753953093183,5,12,N/A,N/A,Unknown,,ChIJJ4VDZwApuYURP4bvzdfV1NQ
La Sábila Mazunte,Hotels,15.6646557,-96.5563414,"Calle Playa Rinconcito s/n entrada por El Pescador, 70947 Mazunte, Oax., Mexico",958 119 1547,http://www.lasabilamazunte.com/,https://maps.google.com/?cid=13809920071946928993,4.5,73,N/A,N/A,Unknown,,ChIJ8zHFUJ0puYURYQPvKCOxpr8
Bajo Las Estrellas,Hotels,15.6668924,-96.5501626,"Avenida Principal, 70947 Mazunte, Oax., Mexico",958 116 1686,N/A,https://maps.google.com/?cid=9216468830288160264,4.2,107,N/A,N/A,Unknown,,ChIJJ4n6cjwpuYURCCbJ-JF5538
Casa Yoo Bigu Mazunte,Hotels,15.6675984,-96.5506297,"C. Tamarindos S/N, 70947 Mazunte, Oax., Mexico",958 109 8308,https://hotels.cloudbeds.com/reservation/gKdZ4n,https://maps.google.com/?cid=16567515933744089381,4.2,113,N/A,N/A,Unknown,,ChIJa8TdQ5ApuYURJclwmfaj6-U
La Playa Hostel,Hotels,15.6650537,-96.5549411,"70947 Mazunte, Oax., Mexico",958 131 5533,N/A,https://maps.google.com/?cid=2161162644888581895,4.2,57,N/A,N/A,Unknown,,ChIJs0O9VvUpuYURB3dtpvn9_R0
Casa H Rinconcito Mazunte,Hotels,15.6662088,-96.5558353,"Rinconcito SN Mazunte, 70947 Oaxaca, Oax., Mexico",958 106 4481,https://casahrinconcitomazunte.com/,https://maps.google.com/?cid=3667599010964529160,4.2,17,N/A,N/A,Unknown,,ChIJMUQ_0IApuYURCGAdY97t5TI
Hotel Pochote,Hotels,15.6676937,-96.5546272,"AVENIDA PRINCIPAL EL MAZUNTE, 70946 Santa María Tonameca, Oax., Mexico",958 106 0700,http://www.hotelpochote.com/,https://maps.google.com/?cid=15173526229092227654,4,124,N/A,N/A,Unknown,,ChIJ4cfhIBYouYURRloda7Yxk9I
Posada luna y sol,Hotels,15.6650552,-96.5561371,"Rinconcito, 70947 Mazunte, Oax., Mexico",N/A,N/A,https://maps.google.com/?cid=16370635379595154640,4.2,46,N/A,N/A,Unknown,,ChIJZZNDFj4ouYUR0BQ2dCQuMOM
Posada del Centro Mazunte Rinconcito,Hotels,15.6675648,-96.55589700000002,"00810 callejo del, duende, 70947 Mazunte, Oax., Mexico",55 2175 9028,N/A,https://maps.google.com/?cid=7789250818077056234,4,7,N/A,N/A,Unknown,,ChIJj4rx2ycpuYUR6lznjVn6GGw
YAM HOTEL,Hotels,15.6680687,-96.5550722,"Las Flores, 70947 Mazunte, Oax., Mexico",958 116 6138,N/A,https://maps.google.com/?cid=1725392177986732942,4.8,30,N/A,N/A,Unknown,,ChIJ-W3acAApuYURjgMjWwvT8Rc
Casa NAU Mazunte,Hotels,15.6656369,-96.5549995,"Barrita esquina palma real Mazunte, 70947 Tonameca, Oax., Mexico",958 143 7518,https://www.casanaumazunte.com/,https://maps.google.com/?cid=6428293229223518731,4.8,33,N/A,N/A,Unknown,,ChIJh5SJXkcpuYURC6LqJ6LiNVk
H20 Hotel Container,Hotels,15.6678276,-96.539569,"Carretera San Antonio - puerto ángel, calle principal, 70947 San Agustinillo, Oax., Mexico",958 107 3202,http://www.h20hotelcontainer.com/,https://maps.google.com/?cid=3616561171142205830,4.9,31,N/A,N/A,Unknown,,ChIJyyVrDxYpuYURhuFmSjmbMDI
Hotel Ave Fenix,Hotels,15.6703138,-96.55657939999999,"C. Caoba, 70949 Mazunte, Oax., Mexico",771 318 1847,N/A,https://maps.google.com/?cid=12547362202143663837,4.7,11,N/A,N/A,Unknown,,ChIJezRePAApuYUR3abvrnEvIa4
Casa Lú Mazunte Hotel Boutique - Adults Only,Hotels,15.6655969,-96.552864,"Golfina 1, 70949 Mazunte, Oax., Mexico",958 229 6814,N/A,https://maps.google.com/?cid=11086225514174763851,4.4,96,N/A,Monday: Open 24 hours | Tuesday: Open 24 hours | Wednesday: Open 24 hours | Thursday: Open 24 hours | Friday: Open 24 hours | Saturday: Open 24 hours | Sunday: Open 24 hours,True,,ChIJAyN14-opuYURS1NCKF4v2pk
Casa de Kai Mazunte,Hotels,15.6670412,-96.55566499999999,"Frente a Lavandería Vicky, Rinconcito SN, 70949 Mazunte, Oax., Mexico",55 7919 3282,https://airbnb.com/h/casadekaimazunte2,https://maps.google.com/?cid=5702477251822321174,4.9,12,N/A,N/A,Unknown,,ChIJqdcJV_opuYURFn6d9thEI08
Cabañas La Escondida,Hotels,15.6659614,-96.5557793,"Calle rinconcito S/N frente al, Camino Al Panteón, 70947 Mazunte, Oax., Mexico",951 509 9100,https://cabañaslaescondida.com/,https://maps.google.com/?cid=16802381087699235186,4.8,75,N/A,Monday: 7:00 AM – 10:00 PM | Tuesday: 7:00 AM – 10:00 PM | Wednesday: 7:00 AM – 10:00 PM | Thursday: 7:00 AM – 10:00 PM | Friday: 7:00 AM – 10:00 PM | Saturday: 7:00 AM – 10:00 PM | Sunday: 7:00 AM – 10:00 PM,False,,ChIJeaGkDT4ouYURcvENkZMMLuk
Pakal Hostal,Hostels,15.6755436,-96.5689173,"Camino playa ventanilla s/n, El Zapotal, 70946 Oax., Mexico",954 132 3223,N/A,https://maps.google.com/?cid=16666070372241858638,4.5,50,N/A,Monday: Closed | Tuesday: Open 24 hours | Wednesday: Open 24 hours | Thursday: Open 24 hours | Friday: Open 24 hours | Saturday: Open 24 hours | Sunday: Open 24 hours,False,,ChIJ90oG6AQouYURTmAj87PGSec
Hostal Alma Turquesa,Hostels,15.6655434,-96.5549964,"La Barrita esquina, Palma Real, 70947 Mazunte, Oax., Mexico",55 3500 3534,N/A,https://maps.google.com/?cid=10908601364705424973,4.8,78,N/A,Monday: Open 24 hours | Tuesday: Open 24 hours | Wednesday: Open 24 hours | Thursday: Open 24 hours | Friday: Open 24 hours | Saturday: Open 24 hours | Sunday: Open 24 hours,True,,ChIJc2aKZT4ouYURTbabGyUjY5c
Hostal Casa del Angel,Hostels,15.6696338,-96.5576461,"Calle Principal Número 99, 70947 Mazunte, Oax., Mexico",55 3045 4050,https://hostalcasadelangel.com.mx/,https://maps.google.com/?cid=12468753301301622047,4.1,92,N/A,N/A,Unknown,,ChIJlW2opjYpuYURH_UPtBDpCa0
Punta Sur - Cabañas,Hostels,15.6617175,-96.5600917,"Cam. a Playa Mermejita, Punta Sur, 70947 Mazunte, Oax., Mexico",958 219 3216,N/A,https://maps.google.com/?cid=18427087768985573672,5,3,N/A,N/A,Unknown,,ChIJj7QJQEMpuYURKJlU67Equv8
Hostal Mezcalito,Hostels,15.6704976,-96.573236,"70947 Oaxaca, Mexico",N/A,N/A,https://maps.google.com/?cid=14033480165480691008,4.3,12,N/A,N/A,Unknown,,ChIJszIiGOYpuYURQHX3odvvwMI
Posada el Secreto,Hostels,15.6676336,-96.554721,"México 175, 70947 Mazunte, Oax., Mexico",777 712 2418,N/A,https://maps.google.com/?cid=14801664477979279126,4.3,27,N/A,N/A,Unknown,,ChIJO6jnPXcpuYURFv94jmsTas0
Centro Mexicano de la Tortuga,Tourist Attractions,15.6665709,-96.5519087,"Av. Principal S/N, Centro, 70947 Mazunte, Oax., Mexico",958 100 2827,https://tortugasmazunte.org/,https://maps.google.com/?cid=8604467778366607269,4.4,3700,N/A,Monday: Closed | Tuesday: Closed | Wednesday: 10:00 AM – 4:30 PM | Thursday: 10:00 AM – 4:30 PM | Friday: 10:00 AM – 4:30 PM | Saturday: 10:00 AM – 4:30 PM | Sunday: 10:00 AM – 2:00 PM,False,,ChIJ3SuPg84puYURpQ_WIts1aXc
TOURS MAZUNTE OCÉANO MAGICO,Tourist Attractions,15.6649803,-96.5545015,"Mazunte magico, Carey, 70946 Pochutla, Oax., Mexico",958 587 8731,https://www.instagram.com/tours_mazunte_oceano_magico?igsh=ZzFmdjRkaDBibWJz,https://maps.google.com/?cid=8657826276467434121,5,880,N/A,Monday: Open 24 hours | Tuesday: Open 24 hours | Wednesday: Open 24 hours | Thursday: Open 24 hours | Friday: Open 24 hours | Saturday: Open 24 hours | Sunday: Open 24 hours,True,,ChIJsTIbJ_wpuYURiWLilyDHJng
Playa Mazunte,Tourist Attractions,15.6642976,-96.5546359,"México 175 26, 70947 Mazunte, Oax., Mexico",N/A,N/A,https://maps.google.com/?cid=15677470309350457127,4.7,7116,N/A,Monday: 9:00 AM – 9:00 PM | Tuesday: 9:00 AM – 9:00 PM | Wednesday: 9:00 AM – 9:00 PM | Thursday: 9:00 AM – 9:00 PM | Friday: 9:00 AM – 9:00 PM | Saturday: 9:00 AM – 9:00 PM | Sunday: 9:00 AM – 9:00 PM,False,,ChIJSw4pvz4ouYURJz-R_S6Qkdk
Scooter for rent,Tourist Attractions,15.6660706,-96.5535275,"rumbo a zipolite, Principal Supermanzana salida, 70944 San Agustinillo, Oax., Mexico",958 116 2460,N/A,https://maps.google.com/?cid=4298035516399772806,4.8,25,N/A,Monday: 8:00 AM – 6:00 PM | Tuesday: 8:00 AM – 6:00 PM | Wednesday: 8:00 AM – 6:00 PM | Thursday: 8:00 AM – 6:00 PM | Friday: 8:00 AM – 6:00 PM | Saturday: 8:00 AM – 6:00 PM | Sunday: 8:00 AM – 6:00 PM,False,,ChIJNebHmjspuYURhmQFu4ewpTs
Tours embarcación Mazunte 2002,Tourist Attractions,15.6639263,-96.55565209999999,"70947 Mazunte, Oax., Mexico",958 138 2956,N/A,https://maps.google.com/?cid=9760230092868985898,5,1,N/A,Monday: Open 24 hours | Tuesday: Open 24 hours | Wednesday: Open 24 hours | Thursday: Open 24 hours | Friday: Open 24 hours | Saturday: Open 24 hours | Sunday: Open 24 hours,True,,ChIJAaG6JwApuYURKqSIu45Nc4c
YINO TOURS MAZUNTE,Tourist Attractions,15.6638651,-96.55569919999999,"Mazunte, 70947 Pochutla, Oax., Mexico",56 3577 0828,N/A,https://maps.google.com/?cid=14714126283532728804,5,127,N/A,Monday: Open 24 hours | Tuesday: Open 24 hours | Wednesday: Open 24 hours | Thursday: Open 24 hours | Friday: Open 24 hours | Saturday: Open 24 hours | Sunday: Open 24 hours,True,,ChIJyV_riT8puYUR5Pk0ZuUTM8w
Secret 5G Tower,Tourist Attractions,15.6638449,-96.5557094,"70947 Mazunte, Oax., Mexico",N/A,N/A,https://maps.google.com/?cid=16677705519186760950,N/A,N/A,N/A,N/A,Unknown,,ChIJN5f3WQApuYUR9tSys84cc-c
Maui experiences,Tourist Attractions,15.6659314,-96.5559016,"Rinconcito, 70947 Mazunte, Oax., Mexico",958 136 0089,N/A,https://maps.google.com/?cid=5900476854721650256,2,1,N/A,N/A,Unknown,,ChIJAzXIzkIpuYURUB4Z82-04lE
Letras Mazunte,Tourist Attractions,15.6672559,-96.55367799999999,"México 175 26, 70947 Mazunte, Oax., Mexico",N/A,N/A,https://maps.google.com/?cid=3934642662461341248,4.5,30,N/A,N/A,Unknown,,ChIJ4RwxgfEpuYURQP4apqeomjY
Playa Schiavon,Tourist Attractions,15.6625743,-96.5561906,"MC7V+2G, 70947 Mazunte, Oax., Mexico",N/A,N/A,https://maps.google.com/?cid=1620928674985475628,N/A,N/A,N/A,N/A,Unknown,,ChIJ4WO0VAApuYURLP7AtgqyfhY
Playa del Lalo,Tourist Attractions,15.6648331,-96.5502491,"Cerrada del Museo S/N-70946, 70947 Mazunte, Oax., Mexico",N/A,N/A,https://maps.google.com/?cid=9611346140849789152,4.7,6,N/A,N/A,Unknown,,ChIJdfOQGQApuYUR4FisWmRcYoU
Mazunte,Tourist Attractions,15.6612081,-96.55623179999999,"MC6V+FG, 70947 Mazunte, Oax., Mexico",N/A,N/A,https://maps.google.com/?cid=16080001387550735877,4.8,377,N/A,N/A,Unknown,,ChIJkS4gx3cpuYURBf6_BBGkJ98
Bifurcación de camino,Tourist Attractions,15.6625556,-96.5579068,"MC7R+2R, 70947 Mazunte, Oax., Mexico",N/A,N/A,https://maps.google.com/?cid=5892223584021274315,4.1,8,N/A,N/A,Unknown,,ChIJoX1zZAApuYURy17EniFixVE
Playa Elefante,Tourist Attractions,15.6643825,-96.5473067,Mexico,N/A,N/A,https://maps.google.com/?cid=11958225253062179770,4.8,85,N/A,N/A,Unknown,,ChIJY62uy7spuYURunvgoIIm9KU
Playa Los peces,Tourist Attractions,15.6611823,-96.5595953,"MC6R+F5, Mazunte, Oax., Mexico",N/A,N/A,https://maps.google.com/?cid=17196179631998711913,N/A,N/A,N/A,Monday: Open 24 hours | Tuesday: Open 24 hours | Wednesday: Open 24 hours | Thursday: Open 24 hours | Friday: Open 24 hours | Saturday: Open 24 hours | Sunday: Open 24 hours,True,,ChIJtUBmGL0puYURaTgXG0Qape4
TTP Secret Naked Cove,Tourist Attractions,15.6612953,-96.55978069999999,"MC6R+G3, Mazunte, Oax., Mexico",N/A,N/A,https://maps.google.com/?cid=13537966545737592238,5,1,N/A,Monday: Open 24 hours | Tuesday: Open 24 hours | Wednesday: Open 24 hours | Thursday: Open 24 hours | Friday: Open 24 hours | Saturday: Open 24 hours | Sunday: Open 24 hours,True,,ChIJs1dWZcopuYURrq3Pm9iE4Ls
TTP Sunset Cove,Tourist Attractions,15.661295,-96.559781,"MC6R+G3, Mazunte, Oax., Mexico",N/A,N/A,https://maps.google.com/?cid=12874277228458100246,2.3,3,N/A,Monday: Open 24 hours | Tuesday: Open 24 hours | Wednesday: Open 24 hours | Thursday: Open 24 hours | Friday: Open 24 hours | Saturday: Open 24 hours | Sunday: Open 24 hours,True,,ChIJu2P1PDMpuYURFkYlru2eqrI
Punta del pescador,Tourist Attractions,15.6605076,-96.5592949,"Santa María Tonameca, Oaxaca, Mexico",N/A,N/A,https://maps.google.com/?cid=17335325467304998360,4.9,15,N/A,N/A,Unknown,,ChIJpV_wPW0puYUR2DV_gKpyk_A
Punta Cometa,Tourist Attractions,15.658116,-96.5561723,"Cam. a Playa Mermejita, 70947 Mazunte, Oax., Mexico",N/A,N/A,https://maps.google.com/?cid=8536800126312990553,4.9,4316,N/A,Monday: Open 24 hours | Tuesday: Open 24 hours | Wednesday: Open 24 hours | Thursday: Open 24 hours | Friday: Open 24 hours | Saturday: Open 24 hours | Sunday: Open 24 hours,True,,ChIJHSKCLEAouYURWUdlJ3zOeHY
Xipiteca,Museums,15.6632736,-96.5601823,"MC7Q+8W, 70947 Mazunte, Oax., Mexico",N/A,N/A,https://maps.google.com/?cid=4153049865058544815,4.8,12,N/A,N/A,Unknown,,ChIJcX_6FAApuYURr2xMNdmYojk
Casa hashi,Museums,15.6693788,-96.53094999999999,"Calle montaña, C. La Blanca Aragon SN-A, 70946 San Antonio, Oax., Mexico",N/A,N/A,https://maps.google.com/?cid=500127857173948973,N/A,N/A,N/A,N/A,Unknown,,ChIJe41EbQApuYURLWoh5aLP8AY
Playa La Ventanilla,Beaches,15.6691438,-96.5750277,"Playa La Ventanilla, 70947 Santa María Tonameca, Oax., Mexico",N/A,N/A,https://maps.google.com/?cid=14293846568665715366,4.8,266,N/A,N/A,Unknown,,ChIJLUep_AgouYURppJB37jxXcY
Playa Mermejita,Beaches,15.6634594,-96.56449339999999,"Playa Mermejita, Oaxaca, Mexico",N/A,N/A,https://maps.google.com/?cid=7699740554541691599,4.7,422,N/A,N/A,Unknown,,ChIJo5afrBMouYURz3IgSD352mo
Playa San Agustinillo,Beaches,15.6653474,-96.54328369999999,"Playa San Agustinillo, Oaxaca, Mexico",N/A,N/A,https://maps.google.com/?cid=603998435613617069,4.8,690,N/A,N/A,Unknown,,ChIJL4hL4jYouYURrSukh2DVYQg
Mazunte,Beaches,15.6649026,-96.552819,"Mazunte, Oaxaca, Mexico",N/A,N/A,https://maps.google.com/?cid=15068424920817933686,4.8,503,N/A,N/A,Unknown,,ChIJbc54wT4ouYURdh3_KaHMHdE
Beach Bikes Mazunte,Beaches,15.667844,-96.55572389999999,"Rinconcito, 70947 Mazunte, Oax., Mexico",56 2652 6220,https://instagram.com/crownagencymx,https://maps.google.com/?cid=9438386282006063768,N/A,N/A,N/A,Monday: 8:00 AM – 6:00 PM | Tuesday: 8:00 AM – 6:00 PM | Wednesday: 8:00 AM – 6:00 PM | Thursday: 8:00 AM – 6:00 PM | Friday: 8:00 AM – 6:00 PM | Saturday: 8:00 AM – 6:00 PM | Sunday: 8:00 AM – 6:00 PM,False,,ChIJA9Uvtq0puYURmCrkF1Hi-4I
Casablanca Surf & Beach Bar,Beaches,15.6655635,-96.5463377,"70947 San Agustinillo, Oax., Mexico",958 142 5027,N/A,https://maps.google.com/?cid=2718772623507626786,5,4,N/A,Monday: 10:00 AM – 6:30 PM | Tuesday: 10:00 AM – 6:30 PM | Wednesday: 10:00 AM – 6:30 PM | Thursday: 10:00 AM – 6:30 PM | Friday: 10:00 AM – 6:30 PM | Saturday: 10:00 AM – 6:30 PM | Sunday: 10:00 AM – 6:30 PM,False,,ChIJsdgEZr0puYURIps64UsFuyU
Rinconcito,Beaches,15.6633037,-96.5559674,"Rinconcito, 70947 Oax., Mexico",N/A,N/A,https://maps.google.com/?cid=4464319183141516370,4.7,1364,N/A,N/A,Unknown,,ChIJ0yCHyT8ouYURUrQc46Ry9D0
Playa Camarón,Beaches,15.662911,-96.52576630000002,"Playa Camarón, Corredor Bahia Camaron, 70947 Oax., Mexico",N/A,http://www.playasmexico.com.mx/,https://maps.google.com/?cid=7451452218415906739,3.9,27,N/A,N/A,Unknown,,ChIJgcnEEsgpuYURs_95K1DgaGc
"CASA MYA ""BEACH HOUSE OAXACA """,Beaches,15.6753027,-96.56885179999999,"Santa María Tonameca, 70947 Oax., Mexico",N/A,N/A,https://maps.google.com/?cid=13414381978441563277,5,3,N/A,N/A,Unknown,,ChIJBYm1VAApuYURjTxpQlZ1Kbo
Alba Beach Club,Beaches,15.6656521,-96.5454668,"Avenida Principal San Agustinillo dentro de Hotel Buda Tortuga, 70946 San gustinillo, 70985 OAXACA, Oax., Mexico",222 511 6748,N/A,https://maps.google.com/?cid=16991513982244283625,4.2,20,N/A,Monday: 8:00 AM – 8:00 PM | Tuesday: 8:00 AM – 8:00 PM | Wednesday: 8:00 AM – 8:00 PM | Thursday: 8:00 AM – 8:00 PM | Friday: 8:00 AM – 8:00 PM | Saturday: 8:00 AM – 8:00 PM | Sunday: 8:00 AM – 8:00 PM,False,,ChIJT9g7d4IpuYUR6eTAI_H7zes
Camping Soleni Mazunte,Beaches,15.6626078,-96.56022379999999,"Frente hotel el copal, Cam. a Playa Mermejita, 70947 Mazunte, Oax., Mexico",55 6219 8223,https://www.facebook.com/profile.php?id=61551604601596&mibextid=LQQJ4d,https://maps.google.com/?cid=15407010010743318920,5,62,N/A,N/A,Unknown,,ChIJc4ffjsYpuYURiCk-lfmx0NU
Casa Ukiyo Hotel Boutique,Beaches,15.6660177,-96.53795,"Rancho Las Hamacas, 70947 San Agustinillo, Oax., Mexico",56 2640 7872,https://stayukiyo.com/,https://maps.google.com/?cid=2754600908849528974,5,23,N/A,N/A,Unknown,,ChIJDT_xYGopuYURjsDxne5OOiY
El Manzano Zapotal Santa María Tonameca,Viewpoints,15.6833711,-96.57489389999999,"70947 Santa María Tonameca, Oaxaca, Mexico",958 130 4899,N/A,https://maps.google.com/?cid=13214543945918021803,3.7,3,N/A,N/A,Unknown,,ChIJT8EM2AEouYURq4A7hbR9Y7c
Los Pochotes Eco Lodge,Viewpoints,15.669613,-96.56323650000002,"Unnamed Road, 70947 Oax., Mexico",N/A,N/A,https://maps.google.com/?cid=16559664587943543999,5,5,N/A,N/A,Unknown,,ChIJGaujNLkpuYURv4T9szS_z-U
Meditation hill of Shambhala,Viewpoints,15.6624875,-96.5241921,"C. Arco Iris 6, Agua Marina, 70904 Playa Zipolite, Oax., Mexico",N/A,N/A,https://maps.google.com/?cid=13575961395268291206,4.3,6,N/A,N/A,Unknown,,ChIJ8eCYmsopuYURhgpi4fWAZ7w
Rinconando Renta de Scooters,Shops,15.667322,-96.5558137,"Rinconcito, 70947 Mazunte, Oax., Mexico",958 142 2294,N/A,https://maps.google.com/?cid=308900224397157241,3.6,7,N/A,Monday: Open 24 hours | Tuesday: Open 24 hours | Wednesday: Open 24 hours | Thursday: Open 24 hours | Friday: Open 24 hours | Saturday: Open 24 hours | Sunday: Open 24 hours,True,,ChIJkXyYxjQpuYUReSM7Eh5vSQQ
Tortilleria Maya,Shops,15.6689533,-96.5533189,"70947 Mazunte, Oax., Mexico",N/A,N/A,https://maps.google.com/?cid=11908232342410894238,4.8,4,N/A,N/A,Unknown,,ChIJISPBG5MpuYURnhs4EDmKQqU
Lichita,Shops,15.6668033,-96.5511868,"70947 Mazunte, Oax., Mexico",N/A,N/A,https://maps.google.com/?cid=12027800934495616140,4.3,4,N/A,N/A,Unknown,,ChIJwXnMZ2cpuYURjPy4UTlV66Y
Restaurante sahuaro,Shops,15.6676798,-96.55453999999999,"70947 Mazunte, Oax., Mexico",N/A,N/A,https://maps.google.com/?cid=15712029905158058126,N/A,N/A,N/A,N/A,Unknown,,ChIJI0q0XwApuYURjrBC7fNXDNo
Marquesitas Mi Dulce Tentación,Shops,15.6680629,-96.5555055,"70947 Mazunte, Oax., Mexico",N/A,N/A,https://maps.google.com/?cid=17431257741540039469,5,1,N/A,Monday: 6:00 – 10:30 PM | Tuesday: 6:00 – 10:30 PM | Wednesday: 6:00 – 10:30 PM | Thursday: 6:00 – 10:30 PM | Friday: 6:00 – 10:30 PM | Saturday: 6:00 – 10:30 PM | Sunday: 6:00 – 10:30 PM,False,,ChIJTZraRwApuYURLZvFqI9E6PE
Por Siempre Tatuajes,Shops,15.6668063,-96.5510891,"a unos metros del museo de la tortuga, Calle Principal S/N, 70947 Mazunte, Oax., Mexico",958 111 8523,https://www.instagram.com/por_siempre_tatuajes?igsh=bjByeHcwOHRsM3Vh&utm_source=qr,https://maps.google.com/?cid=12558338922891390207,5,8,N/A,Monday: 12:00 AM – 7:00 PM | Tuesday: 12:00 AM – 7:00 PM | Wednesday: 12:00 AM – 7:00 PM | Thursday: 12:00 – 7:00 PM | Friday: 12:00 – 7:00 PM | Saturday: 12:00 – 7:00 PM | Sunday: Closed,True,,ChIJ8xfwajQpuYUR_yzno7YuSK4
AlmaArte Boutique,Shops,15.6671223,-96.54816919999999,"El órgano, 70946 Mazunte, Oax., Mexico",958 119 4111,https://almaarte.design.and.art/,https://maps.google.com/?cid=10808204942572821908,5,13,N/A,N/A,Unknown,,ChIJW6UeIswpuYURlJ2shSF1_pU
Estrella Fugaz,Shops,15.6641216,-96.55575999999999,"Rinconcito SN, 70947 Mazunte, Oax., Mexico",958 113 2895,https://airbnb.com/h/estrellaloftmazunte,https://maps.google.com/?cid=2141759933868501878,4,882,$$,Monday: 7:00 AM – 10:00 PM | Tuesday: 7:00 AM – 10:00 PM | Wednesday: 7:00 AM – 10:00 PM | Thursday: 7:00 AM – 10:00 PM | Friday: 7:00 AM – 10:00 PM | Saturday: 7:00 AM – 10:00 PM | Sunday: 7:00 AM – 10:00 PM,False,,ChIJG0JVNj4ouYURdmtl9E8PuR0
Tienda Ecologica,Shops,15.6678066,-96.554887,"av. paseo de entre la Barrita y el Desarrollo, 70947 Mazunte, Oax., Mexico",N/A,N/A,https://maps.google.com/?cid=4068450423217031092,5,2,N/A,N/A,Unknown,,ChIJkbDvHhspuYURtIcjthoKdjg
Casa Mazunteña,Shops,15.6694851,-96.55722,"calle, 70946 Mazunte, Oax., Mexico",55 4851 7111,http://casamazunteña.com/,https://maps.google.com/?cid=11934082026909063879,4.5,29,N/A,N/A,Unknown,,ChIJaZ0lqK4puYURx9pJvl9gnqU
El tapanco,Shops,15.6667432,-96.55562429999999,"La Catrina 5, El panteon, 70946 Mazunte, Oax., Mexico",N/A,N/A,https://maps.google.com/?cid=11204060040535357664,5,1,N/A,N/A,Unknown,,ChIJa62Tf6IpuYUR4DhCxj7RfJs
SAMBODHI SHOP,Shops,15.6649476,-96.55719719999999,"70949 Cerrada la catrina 1 cam a, Cam. Mermejita, 70949 Mazunte, Oax., Mexico",984 178 9132,https://instagram.com/sambodhi.shop?igshid=YmMyMTA2M2Y=,https://maps.google.com/?cid=17893323783805356259,5,20,N/A,Monday: 1:00 – 9:00 PM | Tuesday: 1:00 – 9:00 PM | Wednesday: Closed | Thursday: 1:00 – 9:00 PM | Friday: 1:00 – 9:00 PM | Saturday: 1:00 – 9:00 PM | Sunday: Closed,False,,ChIJa5Pii3YpuYUR40jEsC3bUfg
Helados Terra Nieve Mazunte,Shops,15.6678463,-96.5557721,"Rinconcito, 70947 Mazunte, Oax., Mexico",N/A,N/A,https://maps.google.com/?cid=928500418656608352,5,1,N/A,Monday: Closed | Tuesday: Closed | Wednesday: 9:00 AM – 11:00 PM | Thursday: 9:00 AM – 11:00 PM | Friday: 9:00 AM – 11:00 PM | Saturday: 9:00 AM – 11:00 PM | Sunday: 9:00 AM – 11:00 PM,False,,ChIJpWU5BPMpuYURYCDUGzay4gw
Madre Sierra,Shops,15.6660276,-96.5558325,"calle rinconcito sin numero, 70947 Mazunte, Oax., Mexico",N/A,https://www.madresierramx.com/,https://maps.google.com/?cid=6195489209082370327,4.7,7,N/A,Monday: 9:00 AM – 6:00 PM | Tuesday: 9:00 AM – 6:00 PM | Wednesday: Closed | Thursday: 9:00 AM – 6:00 PM | Friday: 9:00 AM – 6:00 PM | Saturday: 9:00 AM – 6:00 PM | Sunday: 9:00 AM – 6:00 PM,False,,ChIJ-e461qkpuYURF9keTZzM-lU
La Cabañita,Shops,15.6661545,-96.5422001,"Dom. conocido, 70947 San Agustinillo, Oax., Mexico",N/A,N/A,https://maps.google.com/?cid=11157866365051463099,N/A,N/A,N/A,N/A,Unknown,,ChIJ405GPQApuYURu-UrlFe02Jo
Tienda De Cosmeticos Mazunte,Shops,15.6679914,-96.55644939999999,"México 175 26, 70947 Mazunte, Oax., Mexico",958 128 3922,http://www.cosmeticosmazunte.com/,https://maps.google.com/?cid=9149954670761107113,4.4,465,N/A,Monday: 9:00 AM – 4:00 PM | Tuesday: 9:00 AM – 4:00 PM | Wednesday: 9:00 AM – 4:00 PM | Thursday: 9:00 AM – 4:00 PM | Friday: 9:00 AM – 4:00 PM | Saturday: 9:00 AM – 4:00 PM | Sunday: 10:00 AM – 2:00 PM,False,,ChIJg08ijT0ouYURqV6kZUsr-34
Helados tortuga marina / sea turtle icecream,Shops,15.666772,-96.55138629999999,"Carretera san Antonio - puerto angel, 70947 Mazunte, Oax., Mexico",962 111 6833,N/A,https://maps.google.com/?cid=2438913196010857495,4.5,50,N/A,Monday: 11:00 AM – 9:30 PM | Tuesday: 11:00 AM – 9:30 PM | Wednesday: 11:00 AM – 9:30 PM | Thursday: 11:00 AM – 9:30 PM | Friday: 11:00 AM – 9:30 PM | Saturday: 11:00 AM – 9:30 PM | Sunday: 11:00 AM – 9:30 PM,False,,ChIJMeUvTqYpuYURF2Q9PqHC2CE
"Mercado Orgánico, Mazunte",Markets,15.668046,-96.55693219999999,"México 175, 70947 Mazunte, Oax., Mexico",N/A,N/A,https://maps.google.com/?cid=12864020639281751563,4.7,29,N/A,Monday: Closed | Tuesday: Closed | Wednesday: Closed | Thursday: Closed | Friday: Closed | Saturday: Closed | Sunday: 9:00 AM – 3:00 PM,False,,ChIJNz86-hYpuYURC6aua50uhrI
Bliss Bikes - Scooter Rent,Markets,15.6667601,-96.54977919999999,"70947 San Agustinillo, Oax., Mexico",961 874 8546,N/A,https://maps.google.com/?cid=12456138149319992875,4.9,13,N/A,Monday: 10:00 AM – 7:00 PM | Tuesday: 10:00 AM – 7:00 PM | Wednesday: 10:00 AM – 7:00 PM | Thursday: 10:00 AM – 7:00 PM | Friday: 10:00 AM – 7:00 PM | Saturday: 10:00 AM – 7:00 PM | Sunday: 10:00 AM – 7:00 PM,False,,ChIJFbiMnucdRE4RK-Zov6YX3aw
Café Maria José,Markets,15.6734717,-96.5585455,"La Huera S/N, La Huerta, 70947 Mazunte, Oax., Mexico",273 116 3081,https://www.casalasalmas.com/,https://maps.google.com/?cid=15205659644855708254,N/A,N/A,N/A,Monday: 12:00 – 10:00 PM | Tuesday: 12:00 – 10:00 PM | Wednesday: 12:00 – 10:00 PM | Thursday: 12:00 – 10:00 PM | Friday: 12:00 – 10:00 PM | Saturday: 12:00 – 10:00 PM | Sunday: 12:00 – 10:00 PM,False,,ChIJu5G4UJYpuYURXuodS-JaBdM
"Food, Flower & Market",Markets,15.6673622,-96.55414309999999,"México 175 26, 70947 Mazunte, Oax., Mexico",951 430 1668,N/A,https://maps.google.com/?cid=8814236161776685274,4.4,15,N/A,N/A,Unknown,,ChIJP8VCml4puYUR2hAa3RZ1Uno
Frutas y Veduras Mique,Markets,15.6677476,-96.5542322,"un costado de la Av. principal al pasar el puente, cam. a la Aguaje s/n-a, 70947 Mazunte, Oax., Mexico",N/A,N/A,https://maps.google.com/?cid=16137623241421376715,N/A,N/A,N/A,N/A,Unknown,,ChIJnXKQRZkpuYURy0wCWNZa9N8
COSMO,Markets,15.6676923,-96.5558054,"Rinconcito, 70947 Mazunte, Oax., Mexico",771 416 4118,N/A,https://maps.google.com/?cid=5911723742068490512,5,1,N/A,N/A,Unknown,,ChIJa8nRhJQpuYUREEE8-GupClI
Yu'gupa Orgánica Tienda Saludable,Organic Shops,15.6678016,-96.5548383,"av. paseo de entre la Barrita y el Desarrollo, 70947 Mazunte, Oax., Mexico",55 5818 5222,N/A,https://maps.google.com/?cid=15993666925474124968,4.7,64,N/A,Monday: 9:00 AM – 10:00 PM | Tuesday: 9:00 AM – 10:00 PM | Wednesday: 9:00 AM – 10:00 PM | Thursday: 9:00 AM – 10:00 PM | Friday: 9:00 AM – 10:00 PM | Saturday: 9:00 AM – 10:00 PM | Sunday: 9:00 AM – 10:00 PM,False,,ChIJJ5Vi5W4puYURqJTMpFTr9N0
Cafetería La Margarita,Organic Shops,15.6683548,-96.5535688,"Calle la parota, 70947 México, Oax., Mexico",958 117 4378,N/A,https://maps.google.com/?cid=5710141039427967019,5,3,N/A,Monday: 8:00 AM – 9:00 PM | Tuesday: Closed | Wednesday: 8:00 AM – 9:00 PM | Thursday: 8:00 AM – 9:00 PM | Friday: 8:00 AM – 9:00 PM | Saturday: 8:00 AM – 9:00 PM | Sunday: 8:00 AM – 9:00 PM,False,,ChIJ89qCoqMpuYURK9h7kAV_Pk8
"Espacio multicultural ""Sentido Contrario""",Organic Shops,15.6660671,-96.5559447,"70947 Mazunte, Oax., Mexico",55 6063 2928,https://www.facebook.com/Sentido-Contrario-108090728122051,https://maps.google.com/?cid=3661841677826061392,5,4,N/A,N/A,Unknown,,ChIJV6XUgXcpuYURUPSKzpp50TI
Piedra Azul,Organic Shops,15.6826064,-96.56500559999999,"Calle Causuches s/n, 70947 Zapotal, Oax., Mexico",55 1568 2049,https://piedraazulmx.com/,https://maps.google.com/?cid=9896962892777313279,5,1,N/A,Monday: 7:00 AM – 4:00 PM | Tuesday: 7:00 AM – 4:00 PM | Wednesday: 7:00 AM – 4:00 PM | Thursday: 7:00 AM – 4:00 PM | Friday: Closed | Saturday: 7:00 AM – 4:00 PM | Sunday: 7:00 AM – 4:00 PM,False,,ChIJyb1F2u0puYUR_9M2i1ATWYk
LA CASA DE LOS PUEBLOS DEL CACAO,Organic Shops,15.6678006,-96.5548294,"Mercado Orgánico de Mazunte, México 175, 70902 Mazunte, Oax., Mexico",958 173 9067,http://www.casadelcacao.org/,https://maps.google.com/?cid=3833356557929174651,5,1,N/A,Monday: Closed | Tuesday: Closed | Wednesday: Closed | Thursday: Closed | Friday: Closed | Saturday: Closed | Sunday: 9:00 AM – 3:00 PM,False,,ChIJ0yWoaZgpuYURe1bIvHrRMjU
Doba Mini-Super,Organic Shops,15.6667645,-96.55038449999999,"Paseo del Mazunte SN, 70946 Mazunte, Oax., Mexico",81 2521 8751,https://linktr.ee/doba.mazunte,https://maps.google.com/?cid=10512186506063476554,5,2,N/A,Monday: 8:00 AM – 3:30 PM | Tuesday: 8:00 AM – 3:30 PM | Wednesday: 8:00 AM – 3:30 PM | Thursday: 8:00 AM – 3:30 PM | Friday: 8:00 AM – 3:30 PM | Saturday: 8:00 AM – 3:30 PM | Sunday: 8:00 AM – 3:30 PM,False,,ChIJYaqVpUcpuYURSneRau7J4pE
Aldea Corazón,Organic Shops,15.6765625,-96.5645625,"MCGP+J5, 70947 Oax., Mexico",662 318 5195,https://www.airbnb.mx/rooms/1332033396889023903?adults=4&search_mode=regular_search&check_in=2025-03-20&check_out=2025-03-23&source_impression_id=p3_1736719103_P38iMzbKL1lMujpS&previous_page_section_name=1000&federated_search_id=7ee8d9be-01a9-4409-9267-5bdc259fb37b,https://maps.google.com/?cid=10496254229848005886,4.7,6,N/A,N/A,Unknown,,ChIJldhCWgApuYUR_hxISpwvqpE
VIVO La Kombuchería,Organic Shops,15.6669563,-96.5479508,"México 175, 70947 Mazunte, Oax., Mexico",N/A,N/A,https://maps.google.com/?cid=16822206308411609966,5,35,N/A,Monday: 10:00 AM – 5:00 PM | Tuesday: 10:00 AM – 5:00 PM | Wednesday: 10:00 AM – 5:00 PM | Thursday: 10:00 AM – 5:00 PM | Friday: 10:00 AM – 5:00 PM | Saturday: 10:00 AM – 5:00 PM | Sunday: 10:00 AM – 5:00 PM,False,,ChIJmV4FPropuYURbpM1d4J7dOk
Las tortuguitas,Organic Shops,15.6660155,-96.5558391,"Rinconcito, 70947 Mazunte, Oax., Mexico",958 118 0842,N/A,https://maps.google.com/?cid=6138001486955437798,4.5,8,N/A,Monday: Closed | Tuesday: 6:00 AM – 10:00 PM | Wednesday: 6:00 AM – 10:00 PM | Thursday: 6:00 AM – 10:00 PM | Friday: 6:00 AM – 10:00 PM | Saturday: 6:00 AM – 10:00 PM | Sunday: Closed,False,,ChIJieVJDD4ouYUR5l7M9NSPLlU
Pizzeria La Buena Onda,Organic Shops,15.6656619,-96.55557549999999,"Estacionamiento piceno baños y regadera, Atras del viaje de jeny y mar y aun costado el granito de arroz, Rinconcito & Palma Real, 70947 Mazunte, Oax., Mexico",777 830 9034,https://www.facebook.com/profile.php?id=100092296126909&mibextid=ZbWKwL,https://maps.google.com/?cid=5266049262178685971,4.9,103,N/A,Monday: 5:30 – 11:30 PM | Tuesday: 5:30 – 11:30 PM | Wednesday: 5:30 – 11:30 PM | Thursday: 5:30 – 11:30 PM | Friday: 5:30 – 11:30 PM | Saturday: 5:30 – 11:00 PM | Sunday: 5:30 – 11:30 PM,False,,ChIJaYr6bEYpuYURE1TeOefDFEk
Los mejores mojitos,Organic Shops,15.6638737,-96.55563649999999,"Rinconcito, Calle playa, 70947 Mazunte, Oax., Mexico",958 128 9426,N/A,https://maps.google.com/?cid=16141602916356679994,5,23,N/A,Monday: 2:00 – 9:00 PM | Tuesday: 2:00 – 9:00 PM | Wednesday: 2:00 – 9:00 PM | Thursday: 2:00 – 9:00 PM | Friday: 2:00 – 9:00 PM | Saturday: 2:00 – 9:00 PM | Sunday: 2:00 – 9:00 PM,False,,ChIJQXgthd0puYUROmnZnlR-AuA
La casita del chocolate,Artisan Shops,15.6762066,-96.5686219,"70947 Ventanilla, 70947 Santa María Tonameca, Oax., Mexico",958 107 7891,N/A,https://maps.google.com/?cid=9147237517426632371,4.4,7,N/A,Monday: 8:00 AM – 6:00 PM | Tuesday: 8:00 AM – 6:00 PM | Wednesday: 8:00 AM – 6:00 PM | Thursday: 8:00 AM – 6:00 PM | Friday: 8:00 AM – 6:00 PM | Saturday: 8:00 AM – 6:00 PM | Sunday: 8:00 AM – 6:00 PM,False,,ChIJH_QgXg4puYURsyZX1g6E8X4
ArteSano,Stores,15.6660867,-96.5426457,"México 175 141, 70947 San Agustinillo, Oax., Mexico",958 111 3986,https://www.instagram.com/sano_arte/,https://maps.google.com/?cid=15997572280946991108,4.6,11,N/A,Monday: 10:00 AM – 5:00 PM | Tuesday: Closed | Wednesday: 10:00 AM – 5:00 PM | Thursday: 10:00 AM – 5:00 PM | Friday: 10:00 AM – 5:00 PM | Saturday: 10:00 AM – 5:00 PM | Sunday: 10:00 AM – 3:00 PM,False,,ChIJzZ7jxTYouYURBCB7EjvLAt4
"Artesanias y ropa ""Huitzakaxin""",Stores,15.6657458,-96.55348839999999,"70947 Mazunte, Oax., Mexico",958 243 6655,N/A,https://maps.google.com/?cid=17875157300640425442,5,2,N/A,Monday: 9:00 AM – 7:00 PM | Tuesday: 9:00 AM – 7:00 PM | Wednesday: 9:00 AM – 7:00 PM | Thursday: 9:00 AM – 7:00 PM | Friday: 9:00 AM – 7:00 PM | Saturday: 9:00 AM – 7:00 PM | Sunday: 9:00 AM – 7:00 PM,False,,ChIJrbr-agApuYUR4iXnuNtQEfg
"Café Pacífico, Mazunte, Oaxaca",Stores,15.6657866,-96.55492629999999,"esquina Palma Real(Posada La, C. la Barrita, 70946 Mazunte, Oax., Mexico",N/A,N/A,https://maps.google.com/?cid=12101667996395079941,5,2,N/A,Monday: 8:00 AM – 1:00 PM | Tuesday: Closed | Wednesday: 8:00 AM – 1:00 PM | Thursday: 8:00 AM – 1:00 PM | Friday: 8:00 AM – 1:00 PM | Saturday: 8:00 AM – 1:00 PM | Sunday: 8:00 AM – 1:00 PM,False,,ChIJVx-lo2UpuYURBYnX4uzC8ac
LURIO,Stores,15.6657665,-96.5550466,"falafel el loco y helados veganos, C. la Barrita Supermanzana Frente entre los jacalitos y la mezcaleria, 70947 Mazunte, Oax., Mexico",(250) 938-7110,N/A,https://maps.google.com/?cid=17583868868394071462,5,8,N/A,Monday: Closed | Tuesday: Closed | Wednesday: 3:00 – 10:30 PM | Thursday: 3:00 – 10:30 PM | Friday: 3:00 – 10:30 PM | Saturday: 3:00 – 10:30 PM | Sunday: 3:00 – 10:30 PM,False,,ChIJ9zz-7cQpuYURprWtjZJzBvQ
La Choza,Stores,15.6656875,-96.5554375,"MC8V+7R, 70947 Mazunte, Oax., Mexico",958 116 0841,N/A,https://maps.google.com/?cid=9292109655073610321,4.3,3,N/A,Monday: 7:00 AM – 12:00 AM | Tuesday: 7:00 AM – 12:00 AM | Wednesday: 7:00 AM – 12:00 AM | Thursday: 7:00 AM – 12:00 AM | Friday: 7:00 AM – 12:00 AM | Saturday: 7:00 AM – 12:00 AM | Sunday: 7:00 AM – 12:00 AM,False,,ChIJeZ1zeM0puYURUdqj5H809IA
Cocomiel Vegan Ice Cream,Stores,15.6661515,-96.555098,"C. la Barrita, 70947 Mazunte, Oax., Mexico",958 115 6364,https://instagram.com/cocomielhelados?igshid=NzZlODBkYWE4Ng==,https://maps.google.com/?cid=6310441120328149206,4.9,41,N/A,Monday: Closed | Tuesday: Closed | Wednesday: Closed | Thursday: Closed | Friday: 2:00 – 10:00 PM | Saturday: 2:00 – 10:00 PM | Sunday: 2:00 – 10:00 PM,False,,ChIJfUVEXZEpuYUR1mgtycMwk1c
Terraza del Arquitecto,Stores,15.6640196,-96.55547,"Rinconcito, 70946 Mazunte, Oax., Mexico",N/A,N/A,https://maps.google.com/?cid=6339797770089882670,4.1,428,N/A,Monday: 7:00 AM – 10:00 PM | Tuesday: 7:00 AM – 10:00 PM | Wednesday: 7:00 AM – 10:00 PM | Thursday: 7:00 AM – 10:00 PM | Friday: 7:00 AM – 10:00 PM | Saturday: 7:00 AM – 10:00 PM | Sunday: 7:00 AM – 10:00 PM,False,,ChIJGcBHSD4ouYURLmQFcnt8-1c
Perla Blanca Boutique,Stores,15.6643816,-96.55573559999999,"Rinconcito, 70947 Mazunte, Oax., Mexico",55 6252 6031,N/A,https://maps.google.com/?cid=18086951928153696153,5,4,N/A,Monday: 11:00 AM – 7:00 PM | Tuesday: 11:00 AM – 7:00 PM | Wednesday: 11:00 AM – 7:00 PM | Thursday: 11:00 AM – 7:00 PM | Friday: Closed | Saturday: 11:00 AM – 7:00 PM | Sunday: 11:00 AM – 7:00 PM,False,,ChIJq2g5UwApuYURmecqK_PCAfs
Miscelanea Golfina,Stores,15.6666805,-96.55305489999999,"70947 Mazunte, Oax., Mexico",N/A,N/A,https://maps.google.com/?cid=12726456178806689720,N/A,N/A,N/A,Monday: 8:30 AM – 11:00 PM | Tuesday: 8:30 AM – 11:00 PM | Wednesday: 8:30 AM – 11:00 PM | Thursday: 8:30 AM – 11:00 PM | Friday: 8:30 AM – 11:00 PM | Saturday: 8:30 AM – 11:00 PM | Sunday: 8:30 AM – 11:00 PM,False,,ChIJyXklIDwouYURuA9Zi3d0nbA
Haramara,Stores,15.6641303,-96.555758,"Calle playa, Rinconcito, 70947 Mazunte, Oax., Mexico",958 131 6744,N/A,https://maps.google.com/?cid=3071070205788038194,N/A,N/A,N/A,Monday: Closed | Tuesday: Closed | Wednesday: 12:00 – 6:00 PM | Thursday: Closed | Friday: Closed | Saturday: 12:00 – 8:00 PM | Sunday: 12:00 – 8:00 PM,False,,ChIJ-ZR9I-spuYURMiRIuBSinio
desire digital mazunte,Stores,15.6668294,-96.5534107,"Carey, 70947 Mazunte, Oax., Mexico",33 1238 4005,https://desire-sexshop-online.kyte.site/,https://maps.google.com/?cid=11525828922466260515,N/A,N/A,N/A,Monday: Open 24 hours | Tuesday: Open 24 hours | Wednesday: Open 24 hours | Thursday: Open 24 hours | Friday: Open 24 hours | Saturday: Open 24 hours | Sunday: Open 24 hours,True,,ChIJ_yfBEEApuYURI1aGqVb4858
Oaxaca de mis Amores,Stores,15.6667251,-96.55307549999999,"70947 Mazunte, Oax., Mexico",N/A,N/A,https://maps.google.com/?cid=8635237488320891871,4.2,18,N/A,Monday: 7:00 AM – 11:00 PM | Tuesday: 7:00 AM – 11:00 PM | Wednesday: 7:00 AM – 11:00 PM | Thursday: 7:00 AM – 11:00 PM | Friday: 7:00 AM – 11:00 PM | Saturday: 7:00 AM – 11:00 PM | Sunday: 7:00 AM – 11:00 PM,False,,ChIJQ1SfAQApuYUR38uAgr6G1nc
Mini super El Grillito,Stores,15.6668834,-96.5532861,"Entre La Esc Primaria Y Museo Tortuga, Centro, 70947 Mazunte, Oax., Mexico",N/A,N/A,https://maps.google.com/?cid=9825218492040105831,5,1,N/A,N/A,Unknown,,ChIJc1-_BQApuYURZ0-miikwWog
CORAL Lámparas artesanales,Stores,15.665832,-96.5558215,"Andador el Rinconcito frente a Camino a Mermejita Mazunte, 70947 Santa María Tonameca, Oax., Mexico",958 119 3092,N/A,https://maps.google.com/?cid=5469561956150840205,5,2,N/A,Monday: Closed | Tuesday: Closed | Wednesday: Closed | Thursday: Closed | Friday: 4:00 – 10:00 PM | Saturday: 4:00 – 8:00 PM | Sunday: 4:00 – 10:00 PM,False,,ChIJnxuWaRUpuYURjYtcwZ7J50s
Niza Doo Beachwear Mazunte,Stores,15.6651453,-96.5560538,"Rinconcito s/n, 70947 Mazunte, Oax., Mexico",N/A,http://www.nizadoo.com/,https://maps.google.com/?cid=3292380568182932473,3.5,2,N/A,"Monday: 9:00 AM – 8:00 PM | Tuesday: 9:00 AM – 8:00 PM | Wednesday: 9:00 AM – 8:00 PM | Thursday: 9:00 AM – 8:00 PM | Friday: 9:00 AM – 8:00 PM | Saturday: 9:00 AM – 8:00 PM | Sunday: 9:00 AM – 3:00 PM, 4:00 – 8:00 PM",False,,ChIJgYQU5dspuYUR-UPx167isC0
Posada Recinto del Viento,Coworking Spaces,15.6665616,-96.5427631,"Domicilio conocido Posada Recinto del Viento San Agustinillo, 70947 San Pedro Pochutla, Oax., Mexico",N/A,https://recintodelviento.com/,https://maps.google.com/?cid=5497350039858871843,5,11,N/A,Monday: 8:00 AM – 8:00 PM | Tuesday: 8:00 AM – 8:00 PM | Wednesday: 8:00 AM – 8:00 PM | Thursday: 8:00 AM – 8:00 PM | Friday: 8:00 AM – 8:00 PM | Saturday: 8:00 AM – 8:00 PM | Sunday: 8:00 AM – 8:00 PM,False,,ChIJTVfC0zYouYURI37EK7yCSkw
Lavandería,Laundry,15.6665092,-96.5441783,"C. Agustivino 10, 70947 San Agustinillo, Oax., Mexico",N/A,N/A,https://maps.google.com/?cid=16586553759383528109,5,1,N/A,N/A,Unknown,,ChIJR53ACAApuYURraL5y8NGL-Y
LAVANDERIA LA ESPUMA,Laundry,15.6691786,-96.5536585,"70947 Mazunte, Oax., Mexico",N/A,N/A,https://maps.google.com/?cid=1287539975013929842,2.3,17,N/A,N/A,Unknown,,ChIJ0QDcrJMpuYURchPSHMlC3hE
Laundry Chelita,Laundry,15.666358,-96.55578829999999,"Rinconcito, 70947 Mazunte, Oax., Mexico",N/A,N/A,https://maps.google.com/?cid=13210117935233624916,3,25,N/A,Monday: 8:00 AM – 7:00 PM | Tuesday: 8:00 AM – 7:00 PM | Wednesday: 8:00 AM – 7:00 PM | Thursday: 8:00 AM – 7:00 PM | Friday: 8:00 AM – 7:00 PM | Saturday: 8:00 AM – 7:00 PM | Sunday: 8:00 AM – 7:00 PM,False,,ChIJ3zwBmX4puYURVOudmkXEU7c
lavanderia,Laundry,15.6668002,-96.547332,"70947 Santa María Tonameca, Oaxaca, Mexico",N/A,N/A,https://maps.google.com/?cid=15675074457808604627,2.3,8,N/A,N/A,Unknown,,ChIJF8CQvYIpuYUR0w17VSsNidk
Lavanderia BENJY,Laundry,15.6678422,-96.55082089999999,"C. Tamarindos, 70946 Mazunte, Oax., Mexico",958 107 0188,N/A,https://maps.google.com/?cid=675487687549914003,4.4,11,N/A,Monday: 7:00 AM – 4:00 PM | Tuesday: 7:00 AM – 4:00 PM | Wednesday: 7:00 AM – 4:00 PM | Thursday: 7:00 AM – 4:00 PM | Friday: 7:00 AM – 4:00 PM | Saturday: 7:00 AM – 2:00 PM | Sunday: Closed,False,,ChIJXZrQCicpuYURkwuQEnnQXwk
Lavandería Vicky,Laundry,15.6669518,-96.5553822,"C. la Barrita, 70947 Mazunte, Oax., Mexico",81 4649 1985,N/A,https://maps.google.com/?cid=9481917036194413974,2.9,8,N/A,Monday: 9:00 AM – 4:00 PM | Tuesday: 9:00 AM – 4:00 PM | Wednesday: 9:00 AM – 4:00 PM | Thursday: 9:00 AM – 4:00 PM | Friday: 9:00 AM – 4:00 PM | Saturday: 9:00 AM – 3:00 PM | Sunday: Closed,False,,ChIJs4xrBwApuYURlr0XnE6JloM
Cabañas Mágico Atardecer,Laundry,15.6651996,-96.5386078,"70947, Rancho las hamacas, 70947 México, Oax., Mexico",958 109 7523,N/A,https://maps.google.com/?cid=7255242678062456483,5,32,N/A,N/A,Unknown,,ChIJa3ABCckpuYURo54qmcbMr2Q
Ocean Surf School,Surf Shops,15.6656377,-96.5444967,"70947 San Agustinillo, Oax., Mexico",958 587 6569,https://m.facebook.com/profile.php?id=100063933879902,https://maps.google.com/?cid=547924703253075835,4.4,20,N/A,Monday: Open 24 hours | Tuesday: Open 24 hours | Wednesday: Open 24 hours | Thursday: Open 24 hours | Friday: Open 24 hours | Saturday: Open 24 hours | Sunday: Open 24 hours,True,,ChIJn3KEd6UpuYURe5cPVZ2emgc
Sudaka Surf School & Shop,Surf Shops,15.6669334,-96.5510432,"Calle principal, 70947 Mazunte, Oax., Mexico",954 154 3119,http://sudakasurf.com/,https://maps.google.com/?cid=18156003117842470677,5,87,N/A,Monday: 9:00 AM – 4:00 PM | Tuesday: 9:00 AM – 4:00 PM | Wednesday: 9:00 AM – 4:00 PM | Thursday: 9:00 AM – 4:00 PM | Friday: 9:00 AM – 4:00 PM | Saturday: 9:00 AM – 4:00 PM | Sunday: 9:00 AM – 4:00 PM,False,,ChIJhwPXeo4puYURFZfiG6QU9_s
Jahir’s Surf School,Surf Shops,15.6660885,-96.54600479999999,"Supermanzana Playa, 70947 San Agustinillo, Oax., Mexico",951 122 2398,https://www.instagram.com/jahir_surfschool?igsh=MWJkYnVjNm1xZDcycg%3D%3D&utm_source=qr,https://maps.google.com/?cid=11464278945710803351,4.9,33,N/A,Monday: 8:00 AM – 6:00 PM | Tuesday: 8:00 AM – 6:00 PM | Wednesday: 8:00 AM – 6:00 PM | Thursday: 8:00 AM – 6:00 PM | Friday: 8:00 AM – 6:00 PM | Saturday: 8:00 AM – 6:00 PM | Sunday: 8:00 AM – 6:00 PM,False,,ChIJx-CAHAApuYURlwkV9fVMGZ8
Alejandra,Surf Shops,15.6650396,-96.5471967,"Unnamed Road, 70946 Santa María Tonameca, Oax., Mexico",N/A,N/A,https://maps.google.com/?cid=4653811308995062142,3.8,221,$,Monday: 9:00 AM – 6:00 PM | Tuesday: 9:00 AM – 6:00 PM | Wednesday: 9:00 AM – 6:00 PM | Thursday: 9:00 AM – 6:00 PM | Friday: 9:00 AM – 6:00 PM | Saturday: 9:00 AM – 6:00 PM | Sunday: 9:00 AM – 6:00 PM,False,,ChIJLWLlwjkouYURfqlYhLqolUA
PRICILLAS SURF SHACK,Surf Shops,15.6654078,-96.5439497,"Principal S/N San Agustinillo, 70946, 70947 San Agustinillo, Oax., Mexico",N/A,N/A,https://maps.google.com/?cid=9198869989567732743,1,1,N/A,N/A,Unknown,,ChIJVS15FikpuYURB5wvj4TzqH8
Sunset Paddle Tours,Surf Shops,15.6648588,-96.5560417,"70947 Mazunte, Oax., Mexico",(907) 280-9279,http://facebook.com/sunsetpaddletours,https://maps.google.com/?cid=13971520468589737751,5,18,N/A,Monday: Open 24 hours | Tuesday: Open 24 hours | Wednesday: Open 24 hours | Thursday: Open 24 hours | Friday: Open 24 hours | Saturday: Open 24 hours | Sunday: Open 24 hours,True,,ChIJD_-hPD4ouYURF_djhtfP5ME
Surf School IPA,Surf Shops,15.6658669,-96.5460397,"México 175 141, 70947 San Agustinillo, Oax., Mexico",958 587 4008,https://shop.magin.mx/surf-oaxaca-clases-surfing-playas-mexico-hotel-hostal,https://maps.google.com/?cid=7666959581836231323,5,14,N/A,Monday: 8:00 AM – 6:00 PM | Tuesday: 8:00 AM – 6:00 PM | Wednesday: 8:00 AM – 6:00 PM | Thursday: 8:00 AM – 6:00 PM | Friday: 8:00 AM – 6:00 PM | Saturday: 8:00 AM – 6:00 PM | Sunday: 8:00 AM – 6:00 PM,False,,ChIJZRHSFgApuYURm0KgTh6DZmo
Scooter Rental SURF RIDERS,Surf Shops,15.6686432,-96.5537633,"La parota 43, del puente arroyo, 70949 Mazunte, Oax., Mexico",55 8513 0653,https://www.instagram.com/mazuntesurf_riders?igsh=MTNhbG4yMTlncGt2cg==,https://maps.google.com/?cid=16652954482138912314,5,5,N/A,Monday: 8:00 AM – 8:00 PM | Tuesday: 8:00 AM – 8:00 PM | Wednesday: 8:00 AM – 8:00 PM | Thursday: 8:00 AM – 8:00 PM | Friday: 8:00 AM – 8:00 PM | Saturday: 8:00 AM – 8:00 PM | Sunday: Closed,False,,ChIJmUd3jaopuYUROpaj0N4tG-c
Arena Negra,Surf Shops,15.6678571,-96.5551948,"70947 Mazunte, Oax., Mexico",958 587 6046,N/A,https://maps.google.com/?cid=1379355381230915053,4.7,274,N/A,Monday: 5:00 – 10:00 PM | Tuesday: 5:00 – 10:00 PM | Wednesday: 5:00 – 10:00 PM | Thursday: Closed | Friday: 5:00 – 10:00 PM | Saturday: 5:00 – 10:00 PM | Sunday: 5:00 – 10:00 PM,False,,ChIJE5MLbuEpuYUR7c1KPWl0JBM
Pacifico Magico Tours,Surf Shops,15.665058,-96.54722369999999,"70947 San Agustinillo, Oax., Mexico",N/A,https://www.instagram.com/pacifico_magico_tours?igsh=bTd4eTM4ZGY1ZGdw,https://maps.google.com/?cid=12557088816228888746,4.6,54,N/A,N/A,Unknown,,ChIJMelfaAApuYURqnBagL-9Q64
Casa Aamori,Surf Shops,15.6657915,-96.54252729999999,"Calle Principal S/N, San Agustinillo, 70946 Santa María Tonameca, Oax., Mexico",55 5436 2538,http://www.aamoriboutiquehotel.com/,https://maps.google.com/?cid=12254485391019365111,4.4,117,N/A,N/A,Unknown,,ChIJVVRDkUbUuIUR91LsPImtEKo
El Triángulo Mazunte (by appointment),Surf Shops,15.6718109,-96.5543148,"El Triangulo S/N, 70947 Oax., Mexico",(917) 207-5125,http://www.eltriangulo.co/,https://maps.google.com/?cid=18011987928341622408,4.9,15,N/A,N/A,Unknown,,ChIJdyq0nVYpuYURiC5t15Zv9_k
La Ola,Surf Shops,15.6655902,-96.5453477,"México 175 141, 70947 San Agustinillo, Oax., Mexico",958 118 5943,N/A,https://maps.google.com/?cid=3486196803127788844,4,252,N/A,Monday: 7:30 AM – 5:30 PM | Tuesday: 7:30 AM – 5:30 PM | Wednesday: 7:30 AM – 5:30 PM | Thursday: 7:30 AM – 5:30 PM | Friday: 7:30 AM – 5:30 PM | Saturday: 7:30 AM – 5:30 PM | Sunday: 10:00 AM – 5:30 PM,False,,ChIJF0yp4TkouYURLMWIk4V1YTA
Cangrejito playero,Surf Shops,15.6658171,-96.5442475,"san agustinillo, avenida principal, 70947 OAXACA, Oax., Mexico",958 587 4008,https://shop.magin.mx/surf-oaxaca-clases-surfing-playas-mexico-hotel-hostal,https://maps.google.com/?cid=10358892081178489604,N/A,N/A,N/A,Monday: 8:00 AM – 6:00 PM | Tuesday: 8:00 AM – 6:00 PM | Wednesday: 8:00 AM – 6:00 PM | Thursday: 8:00 AM – 6:00 PM | Friday: 8:00 AM – 6:00 PM | Saturday: 8:00 AM – 6:00 PM | Sunday: 8:00 AM – 6:00 PM,False,,ChIJEVwVLLEpuYURBDNAzXYtwo8
