[
  {
    "name": "Hotel Altamira Mazunte",
    "category": "Restaurants",
    "latitude": 15.6635866,
    "longitude": -96.5573295,
    "address": "Camino a Punta Cometa S/N, 70946 Mazunte, Oax., Mexico",
    "phone": "958 688 3800",
    "website": "https://altamiramazunte.com/",
    "google_maps_url": "https://maps.google.com/?cid=12309439154860407205",
    "rating": 4.4,
    "review_count": 394,
    "price_level": "N/A",
    "hours": "Monday: 8:00 AM – 10:00 PM | Tuesday: 8:00 AM – 10:00 PM | Wednesday: 8:00 AM – 10:00 PM | Thursday: 8:00 AM – 10:00 PM | Friday: 8:00 AM – 10:00 PM | Saturday: 8:00 AM – 10:00 PM | Sunday: 8:00 AM – 10:00 PM",
    "open_now": false,
    "types": "",
    "place_id": "ChIJmQ4N5T8ouYURpTm9cbHp06o"
  },
  {
    "name": "Paraíso del Pescador",
    "category": "Restaurants",
    "latitude": 15.6654381,
    "longitude": -96.54441059999999,
    "address": "San Agustinillo Tonameca . calle principal s/n col centro, 70947 Mazunte, Oax., Mexico",
    "phone": "958 589 9517",
    "website": "http://paraisodelpescador.tuhotel.com.mx/",
    "google_maps_url": "https://maps.google.com/?cid=13709901487590404392",
    "rating": 4,
    "review_count": 342,
    "price_level": "N/A",
    "hours": "Monday: 8:00 AM – 10:00 PM | Tuesday: 8:00 AM – 10:00 PM | Wednesday: 8:00 AM – 10:00 PM | Thursday: 8:00 AM – 10:00 PM | Friday: 8:00 AM – 10:00 PM | Saturday: 8:00 AM – 10:00 PM | Sunday: 8:00 AM – 10:00 PM",
    "open_now": false,
    "types": "",
    "place_id": "ChIJTcjEWTcouYURKPFsycNaQ74"
  },
  {
    "name": "Palapa Omar",
    "category": "Restaurants",
    "latitude": 15.6649815,
    "longitude": -96.55369519999999,
    "address": "70947 Santa María Tonameca, Oaxaca, Mexico",
    "phone": "958 131 8626",
    "website": "N/A",
    "google_maps_url": "https://maps.google.com/?cid=16728805299135862195",
    "rating": 3.6,
    "review_count": 139,
    "price_level": "N/A",
    "hours": "Monday: 7:00 AM – 6:00 PM | Tuesday: 7:00 AM – 6:00 PM | Wednesday: 7:00 AM – 6:00 PM | Thursday: 7:00 AM – 6:00 PM | Friday: 7:00 AM – 6:00 PM | Saturday: 7:00 AM – 6:00 PM | Sunday: 7:00 AM – 6:00 PM",
    "open_now": false,
    "types": "",
    "place_id": "ChIJYdK88j4ouYURs1WqW8mnKOg"
  },
  {
    "name": "Jalilh restaurante & bar",
    "category": "Restaurants",
    "latitude": 15.6649929,
    "longitude": -96.5534837,
    "address": "Andador carey Playa, 70947 Mazunte, Oax., Mexico",
    "phone": "958 107 6567",
    "website": "N/A",
    "google_maps_url": "https://maps.google.com/?cid=5847687204100691825",
    "rating": 4.5,
    "review_count": 257,
    "price_level": "N/A",
    "hours": "Monday: 8:00 AM – 7:00 PM | Tuesday: 8:00 AM – 7:00 PM | Wednesday: 8:00 AM – 7:00 PM | Thursday: 8:00 AM – 7:00 PM | Friday: 8:00 AM – 10:00 PM | Saturday: 8:00 AM – 11:00 PM | Sunday: 8:00 AM – 10:00 PM",
    "open_now": false,
    "types": "",
    "place_id": "ChIJr8U_7T4ouYURcdcEnocoJ1E"
  },
  {
    "name": "El Pescador",
    "category": "Restaurants",
    "latitude": 15.6647534,
    "longitude": -96.5543335,
    "address": "playa principal Mazunte, 70209 Santa María Tonameca, Oax., Mexico",
    "phone": "N/A",
    "website": "N/A",
    "google_maps_url": "https://maps.google.com/?cid=3747820351293269074",
    "rating": 4.1,
    "review_count": 207,
    "price_level": "$$",
    "hours": "Monday: 7:00 AM – 9:00 PM | Tuesday: 7:00 AM – 9:00 PM | Wednesday: 7:00 AM – 9:00 PM | Thursday: 7:00 AM – 9:00 PM | Friday: 7:00 AM – 9:00 PM | Saturday: 7:00 AM – 9:00 PM | Sunday: 7:00 AM – 9:00 PM",
    "open_now": false,
    "types": "",
    "place_id": "ChIJqcRoWT4ouYURUqTQsMDuAjQ"
  },
  {
    "name": "KAPRICHO",
    "category": "Restaurants",
    "latitude": 15.6640192,
    "longitude": -96.5558009,
    "address": "PLAYA RINCONCITO SN, 70947 Oax., Mexico",
    "phone": "958 113 2895",
    "website": "https://www.facebook.com/KaprichoMazunte/?fref=ts",
    "google_maps_url": "https://maps.google.com/?cid=1939488543105808809",
    "rating": 3.3,
    "review_count": 6,
    "price_level": "N/A",
    "hours": "N/A",
    "open_now": "Unknown",
    "types": "",
    "place_id": "ChIJZ95QNj4ouYURqfnC2Y1y6ho"
  },
  {
    "name": "Mazuntaco",
    "category": "Restaurants",
    "latitude": 15.6668755,
    "longitude": -96.5527929,
    "address": "México 175, 70947 Mazunte, Oax., Mexico",
    "phone": "N/A",
    "website": "https://www.facebook.com/mazuntaco",
    "google_maps_url": "https://maps.google.com/?cid=4065332138874176284",
    "rating": 3,
    "review_count": 1,
    "price_level": "N/A",
    "hours": "N/A",
    "open_now": "Unknown",
    "types": "",
    "place_id": "ChIJg5cgHzwouYURHAOTjwr2ajg"
  },
  {
    "name": "Doña Meche",
    "category": "Restaurants",
    "latitude": 15.6670939,
    "longitude": -96.55571139999999,
    "address": "Rinconcito, 70947 Mazunte, Oax., Mexico",
    "phone": "958 109 8712",
    "website": "N/A",
    "google_maps_url": "https://maps.google.com/?cid=13801636903347960837",
    "rating": 3.5,
    "review_count": 282,
    "price_level": "N/A",
    "hours": "Monday: 8:00 AM – 11:00 PM | Tuesday: 8:00 AM – 11:00 PM | Wednesday: 8:00 AM – 11:00 PM | Thursday: 8:00 AM – 11:00 PM | Friday: 8:00 AM – 11:00 PM | Saturday: 8:00 AM – 11:00 PM | Sunday: 8:00 AM – 11:00 PM",
    "open_now": false,
    "types": "",
    "place_id": "ChIJqbmS6T0ouYURBTz6rqNDib8"
  },
  {
    "name": "Gigantortas y pipas de agua don temo",
    "category": "Restaurants",
    "latitude": 15.6676657,
    "longitude": -96.5532228,
    "address": "México 175 26, 70947 Mazunte, Oax., Mexico",
    "phone": "958 113 2316",
    "website": "http://www.purificadoragotadevida.amawebs.com/",
    "google_maps_url": "https://maps.google.com/?cid=12758009583424734559",
    "rating": 5,
    "review_count": 1,
    "price_level": "N/A",
    "hours": "N/A",
    "open_now": "Unknown",
    "types": "",
    "place_id": "ChIJDyaTPjwouYURX4UPDR-ODbE"
  },
  {
    "name": "R La Tortuguita",
    "category": "Restaurants",
    "latitude": 15.6678567,
    "longitude": -96.5534842,
    "address": "Av. Principal s/n, Las Tortuguitas, 60946 Mazunte, Oax., Mexico",
    "phone": "958 589 9016",
    "website": "N/A",
    "google_maps_url": "https://maps.google.com/?cid=12060443598271667759",
    "rating": 4.3,
    "review_count": 6,
    "price_level": "N/A",
    "hours": "N/A",
    "open_now": "Unknown",
    "types": "",
    "place_id": "ChIJqzL7ODwouYURL96dvI1NX6c"
  },
  {
    "name": "El copal restaurant and hotel",
    "category": "Restaurants",
    "latitude": 15.6621459,
    "longitude": -96.5596875,
    "address": "mermejita manzunte, Av del Panteón, Arboledas del Sur, 70947 México, D.F., Mexico",
    "phone": "55 5616 1607",
    "website": "N/A",
    "google_maps_url": "https://maps.google.com/?cid=5884340425864420426",
    "rating": 4.2,
    "review_count": 53,
    "price_level": "N/A",
    "hours": "Monday: 7:30 AM – 10:30 PM | Tuesday: 7:30 AM – 10:30 PM | Wednesday: 7:30 AM – 10:30 PM | Thursday: 7:30 AM – 10:30 PM | Friday: 7:30 AM – 10:30 PM | Saturday: 7:30 AM – 10:30 PM | Sunday: 7:30 AM – 10:30 PM",
    "open_now": false,
    "types": "",
    "place_id": "ChIJcbFf4RQouYURSpwe1XBgqVE"
  },
  {
    "name": "Panza Verde - Las Tres Marias",
    "category": "Restaurants",
    "latitude": 15.6664628,
    "longitude": -96.54485120000001,
    "address": "México 175 141, Jose Vasconcelos, 68115 Oaxaca de Juárez, Oax., Mexico",
    "phone": "19581004044",
    "website": "N/A",
    "google_maps_url": "https://maps.google.com/?cid=14735911989256283690",
    "rating": 5,
    "review_count": 3,
    "price_level": "N/A",
    "hours": "N/A",
    "open_now": "Unknown",
    "types": "",
    "place_id": "ChIJa7LWNzcouYURKmYKSeF5gMw"
  },
  {
    "name": "Casa Las Almas - Mazunte",
    "category": "Restaurants",
    "latitude": 15.6735364,
    "longitude": -96.5586032,
    "address": "La Huerta S/N, La Huerta, 70947 Mazunte, Oax., Mexico",
    "phone": "273 116 3081",
    "website": "https://casalasalmas.com/",
    "google_maps_url": "https://maps.google.com/?cid=3184757549711997662",
    "rating": 4.7,
    "review_count": 53,
    "price_level": "N/A",
    "hours": "N/A",
    "open_now": "Unknown",
    "types": "",
    "place_id": "ChIJDcQxPDwouYUR3rpTLh6IMiw"
  },
  {
    "name": "La Mora Posada",
    "category": "Restaurants",
    "latitude": 15.6657214,
    "longitude": -96.5432903,
    "address": "México 175 SN, 70947 San Agustinillo, Oax., Mexico",
    "phone": "958 584 6422",
    "website": "http://www.lamoraposada.com/",
    "google_maps_url": "https://maps.google.com/?cid=3173559783035419316",
    "rating": 4.7,
    "review_count": 527,
    "price_level": "$$",
    "hours": "Monday: 8:00 AM – 2:00 PM | Tuesday: Closed | Wednesday: 8:00 AM – 2:00 PM | Thursday: 8:00 AM – 2:00 PM | Friday: 8:00 AM – 2:00 PM | Saturday: 8:00 AM – 2:00 PM | Sunday: 8:00 AM – 2:00 PM",
    "open_now": false,
    "types": "",
    "place_id": "ChIJbcUN3zYouYURtLpK9c6_Ciw"
  },
  {
    "name": "Sociedad Cooperativa Lagarto Real",
    "category": "Restaurants",
    "latitude": 15.669083,
    "longitude": -96.575875,
    "address": "Playa Ventanilla Santa María Tonameca, Ventanilla, 70947 Santa María Tonameca, Oax., Mexico",
    "phone": "19581306895",
    "website": "https://www.facebook.com/lagartoreal.ventanilla",
    "google_maps_url": "https://maps.google.com/?cid=17248415060201555768",
    "rating": 4.7,
    "review_count": 547,
    "price_level": "N/A",
    "hours": "Monday: 8:00 AM – 8:00 PM | Tuesday: 8:00 AM – 8:00 PM | Wednesday: 8:00 AM – 8:00 PM | Thursday: 8:00 AM – 8:00 PM | Friday: 8:00 AM – 8:00 PM | Saturday: 8:00 AM – 8:00 PM | Sunday: 8:00 AM – 8:00 PM",
    "open_now": false,
    "types": "",
    "place_id": "ChIJwWFKVAgouYUROMfPeRyuXu8"
  },
  {
    "name": "Ofelia´s Inn",
    "category": "Restaurants",
    "latitude": 15.6629214,
    "longitude": -96.5619949,
    "address": "Cam. a Playa Mermejita s/n, 70947 Mazunte, Oax., Mexico",
    "phone": "958 688 3976",
    "website": "https://ofelia.com.mx/",
    "google_maps_url": "https://maps.google.com/?cid=6907150203804829156",
    "rating": 4.4,
    "review_count": 86,
    "price_level": "N/A",
    "hours": "N/A",
    "open_now": "Unknown",
    "types": "",
    "place_id": "ChIJpx27hRQouYUR5MUNxIMg218"
  },
  {
    "name": "Restaurante brisa",
    "category": "Restaurants",
    "latitude": 15.6649597,
    "longitude": -96.5539211,
    "address": "El mazunte Tonameca Pochutla Oaxaca Tonameca Pochutla, 70947 México, Oax., Mexico",
    "phone": "N/A",
    "website": "N/A",
    "google_maps_url": "https://maps.google.com/?cid=10577738218108638850",
    "rating": 4.3,
    "review_count": 12,
    "price_level": "N/A",
    "hours": "Monday: 8:00 AM – 10:00 PM | Tuesday: 8:00 AM – 10:00 PM | Wednesday: 8:00 AM – 10:00 PM | Thursday: 8:00 AM – 10:00 PM | Friday: 8:00 AM – 10:00 PM | Saturday: 8:00 AM – 10:00 PM | Sunday: 8:00 AM – 10:00 PM",
    "open_now": false,
    "types": "",
    "place_id": "ChIJBxglqKcpuYURglZwud2sy5I"
  },
  {
    "name": "Palapa El Arbolito",
    "category": "Restaurants",
    "latitude": 15.6648622,
    "longitude": -96.55396429999999,
    "address": "Carey, 70947 Mazunte, Oax., Mexico",
    "phone": "958 142 6543",
    "website": "N/A",
    "google_maps_url": "https://maps.google.com/?cid=17181955934955250959",
    "rating": 3.7,
    "review_count": 34,
    "price_level": "N/A",
    "hours": "Monday: 8:00 AM – 6:30 PM | Tuesday: 8:00 AM – 6:30 PM | Wednesday: 8:00 AM – 6:30 PM | Thursday: 8:00 AM – 6:30 PM | Friday: 8:00 AM – 6:30 PM | Saturday: 8:00 AM – 6:30 PM | Sunday: 8:00 AM – 6:30 PM",
    "open_now": false,
    "types": "",
    "place_id": "ChIJH2KF8z4ouYURDyVskeORcu4"
  },
  {
    "name": "Tropicu",
    "category": "Restaurants",
    "latitude": 15.6647925,
    "longitude": -96.5539371,
    "address": "calle principal rumbo a la playa cerca de javier ziga rios, 70949 Mazunte, Oax., Mexico",
    "phone": "777 193 2964",
    "website": "N/A",
    "google_maps_url": "https://maps.google.com/?cid=17259228645562199340",
    "rating": 5,
    "review_count": 4,
    "price_level": "N/A",
    "hours": "Monday: 8:00 AM – 2:00 PM | Tuesday: 8:00 AM – 2:00 PM | Wednesday: 8:00 AM – 2:00 PM | Thursday: 8:00 AM – 2:00 PM | Friday: 8:00 AM – 2:00 PM | Saturday: 8:00 AM – 2:00 PM | Sunday: 8:00 AM – 2:00 PM",
    "open_now": false,
    "types": "",
    "place_id": "ChIJ5XAl244puYURLC37gwIZhe8"
  },
  {
    "name": "Palapa El Mazunte",
    "category": "Restaurants",
    "latitude": 15.6647361,
    "longitude": -96.55427619999999,
    "address": "Frente a playa principal Mazunte Playa principal, 70947 Mazunte, Oax., Mexico",
    "phone": "55 3924 1128",
    "website": "https://m.facebook.com/story.php?story_fbid=951214531717107&id=129119520593283",
    "google_maps_url": "https://maps.google.com/?cid=351598268330767238",
    "rating": 4.1,
    "review_count": 198,
    "price_level": "N/A",
    "hours": "Monday: 7:00 AM – 8:00 PM | Tuesday: 7:00 AM – 8:00 PM | Wednesday: 7:00 AM – 8:00 PM | Thursday: 7:00 AM – 8:00 PM | Friday: 7:00 AM – 8:00 PM | Saturday: 7:00 AM – 8:00 PM | Sunday: 7:00 AM – 8:00 PM",
    "open_now": false,
    "types": "",
    "place_id": "ChIJpUW1G_4puYURhnN_H8Mg4QQ"
  },
  {
    "name": "La Vendimia",
    "category": "Cafes",
    "latitude": 15.6643121,
    "longitude": -96.55586129999999,
    "address": "Rinconcito localidad, 70949 Mazunte, Oax., Mexico",
    "phone": "961 655 4759",
    "website": "N/A",
    "google_maps_url": "https://maps.google.com/?cid=13426134512163889405",
    "rating": 3.9,
    "review_count": 126,
    "price_level": "N/A",
    "hours": "Monday: Open 24 hours | Tuesday: 4:00 – 11:00 PM | Wednesday: 4:00 – 11:00 PM | Thursday: Closed | Friday: 3:00 – 11:00 PM | Saturday: 4:00 – 11:00 PM | Sunday: 4:00 – 11:00 PM",
    "open_now": true,
    "types": "",
    "place_id": "ChIJsTvQUykpuYUR_SAkQDQ2U7o"
  },
  {
    "name": "Umami - Barra de Cafe - Restaurante",
    "category": "Cafes",
    "latitude": 15.6666453,
    "longitude": -96.5498843,
    "address": "México 175 s/n, 70940 Mazunte, Oax., Mexico",
    "phone": "N/A",
    "website": "https://umamisanagus.mx/",
    "google_maps_url": "https://maps.google.com/?cid=13346226592908073568",
    "rating": 4.8,
    "review_count": 244,
    "price_level": "N/A",
    "hours": "Monday: 8:00 AM – 9:30 PM | Tuesday: 8:00 AM – 9:30 PM | Wednesday: 8:00 AM – 9:30 PM | Thursday: Closed | Friday: 8:00 AM – 9:30 PM | Saturday: 8:00 AM – 9:30 PM | Sunday: 8:00 AM – 9:30 PM",
    "open_now": false,
    "types": "",
    "place_id": "ChIJSaTqwngpuYURYFoo-l9SN7k"
  },
  {
    "name": "Cafe Duva",
    "category": "Cafes",
    "latitude": 15.6667546,
    "longitude": -96.5524167,
    "address": "México 175 26, 70947 Mazunte, Oax., Mexico",
    "phone": "477 413 5630",
    "website": "N/A",
    "google_maps_url": "https://maps.google.com/?cid=16239745866915098385",
    "rating": 4.3,
    "review_count": 38,
    "price_level": "N/A",
    "hours": "N/A",
    "open_now": "Unknown",
    "types": "",
    "place_id": "ChIJ-a-H7DgpuYUREa8X-NIqX-E"
  },
  {
    "name": "Ícaro Café",
    "category": "Cafes",
    "latitude": 15.6665593,
    "longitude": -96.5548675,
    "address": "C. la Barrita, 70947 Mazunte, Oax., Mexico",
    "phone": "444 223 2136",
    "website": "N/A",
    "google_maps_url": "https://maps.google.com/?cid=1714579228533280027",
    "rating": 4.9,
    "review_count": 214,
    "price_level": "N/A",
    "hours": "Monday: Closed | Tuesday: 8:30 AM – 1:00 PM | Wednesday: 8:30 AM – 1:00 PM | Thursday: 8:30 AM – 1:00 PM | Friday: 8:30 AM – 1:00 PM | Saturday: 8:30 AM – 1:00 PM | Sunday: Closed",
    "open_now": false,
    "types": "",
    "place_id": "ChIJvXXTt48puYURG039X7loyxc"
  },
  {
    "name": "Reverencia Cafe",
    "category": "Cafes",
    "latitude": 15.6661937,
    "longitude": -96.5550796,
    "address": "C. la Barrita, 70947 Mazunte, Oax., Mexico",
    "phone": "N/A",
    "website": "https://www.instagram.com/reverenciacafe",
    "google_maps_url": "https://maps.google.com/?cid=11587622134694830447",
    "rating": 5,
    "review_count": 22,
    "price_level": "N/A",
    "hours": "Monday: 8:00 AM – 3:00 PM | Tuesday: 8:00 AM – 3:00 PM | Wednesday: 8:00 AM – 3:00 PM | Thursday: 8:00 AM – 3:00 PM | Friday: 8:00 AM – 3:00 PM | Saturday: 8:00 AM – 3:00 PM | Sunday: 8:00 AM – 3:00 PM",
    "open_now": false,
    "types": "",
    "place_id": "ChIJA8xONiApuYURb2HwCfCAz6A"
  },
  {
    "name": "Ronald's Coconut Stand",
    "category": "Cafes",
    "latitude": 15.6647405,
    "longitude": -96.5556166,
    "address": "C. la Barrita, 70947 Mazunte, Oax., Mexico",
    "phone": "958 111 0263",
    "website": "N/A",
    "google_maps_url": "https://maps.google.com/?cid=17109906630275239709",
    "rating": 3.5,
    "review_count": 13,
    "price_level": "N/A",
    "hours": "Monday: Open 24 hours | Tuesday: Open 24 hours | Wednesday: Open 24 hours | Thursday: Open 24 hours | Friday: Open 24 hours | Saturday: Open 24 hours | Sunday: Open 24 hours",
    "open_now": true,
    "types": "",
    "place_id": "ChIJe7e3TzQpuYURHQ-olW2Zcu0"
  },
  {
    "name": "Orale Café",
    "category": "Cafes",
    "latitude": 15.6648944,
    "longitude": -96.52518520000001,
    "address": "C. las Casitas, Playa Zipolite, 70947 Arroyo tres, Oax., Mexico",
    "phone": "958 117 7129",
    "website": "N/A",
    "google_maps_url": "https://maps.google.com/?cid=17421884212371364825",
    "rating": 4.8,
    "review_count": 623,
    "price_level": "$",
    "hours": "Monday: 8:00 AM – 2:30 PM | Tuesday: Closed | Wednesday: Closed | Thursday: 8:00 AM – 2:30 PM | Friday: 8:00 AM – 2:30 PM | Saturday: 8:00 AM – 2:30 PM | Sunday: 8:00 AM – 2:30 PM",
    "open_now": false,
    "types": "",
    "place_id": "ChIJtxmHAMcpuYUR2Zth1GL3xvE"
  },
  {
    "name": "El Cafecito",
    "category": "Cafes",
    "latitude": 15.666773,
    "longitude": -96.55118089999999,
    "address": "Avenida principal paseo del mazunte sin, A un lado de tienda palmira y verduleria lichita, Lote numero, 70946 Mazunte, Oax., Mexico",
    "phone": "N/A",
    "website": "N/A",
    "google_maps_url": "https://maps.google.com/?cid=17617677999187695667",
    "rating": 4.4,
    "review_count": 60,
    "price_level": "N/A",
    "hours": "Monday: 8:00 AM – 7:00 PM | Tuesday: 8:00 AM – 7:00 PM | Wednesday: 8:00 AM – 7:00 PM | Thursday: 8:00 AM – 7:00 PM | Friday: 8:00 AM – 7:00 PM | Saturday: 8:00 AM – 7:00 PM | Sunday: 8:00 AM – 7:00 PM",
    "open_now": false,
    "types": "",
    "place_id": "ChIJs97W4jsouYURMxjMPMyQfvQ"
  },
  {
    "name": "Panchatantra Café Cultural",
    "category": "Cafes",
    "latitude": 15.6678166,
    "longitude": -96.5535955,
    "address": "Centro deportivo, 70947 Mazunte, Oax., Mexico",
    "phone": "N/A",
    "website": "N/A",
    "google_maps_url": "https://maps.google.com/?cid=883491629821042498",
    "rating": 4.9,
    "review_count": 85,
    "price_level": "N/A",
    "hours": "Monday: 12:00 – 11:00 PM | Tuesday: 12:00 – 11:00 PM | Wednesday: 12:00 – 11:00 PM | Thursday: 12:00 – 11:00 PM | Friday: 12:00 – 11:00 PM | Saturday: 12:00 – 11:00 PM | Sunday: 12:00 – 11:00 PM",
    "open_now": false,
    "types": "",
    "place_id": "ChIJB8ZXU7EpuYURQp-D1fTKQgw"
  },
  {
    "name": "Doña Jose",
    "category": "Cafes",
    "latitude": 15.6669733,
    "longitude": -96.55148009999999,
    "address": "paseo del mazunte, 70946 Mazunte, Oax., Mexico",
    "phone": "958 111 8429",
    "website": "https://www.facebook.com/Restaurante-DO%C3%91A-JOSE-524330681096300/",
    "google_maps_url": "https://maps.google.com/?cid=1198626979255425396",
    "rating": 5,
    "review_count": 16,
    "price_level": "N/A",
    "hours": "Monday: 8:00 – 9:00 AM | Tuesday: 8:00 – 9:00 AM | Wednesday: 8:00 – 9:00 AM | Thursday: 8:00 – 9:00 AM | Friday: 8:00 – 9:00 AM | Saturday: 8:00 – 9:00 AM | Sunday: 8:00 AM – 6:00 AM",
    "open_now": true,
    "types": "",
    "place_id": "ChIJj2S3bvUpuYURdBm4FONgohA"
  },
  {
    "name": "Restaurante Solsticio",
    "category": "Cafes",
    "latitude": 15.6690732,
    "longitude": -96.57605769999999,
    "address": "Ventanilla, 70947 Oax., Mexico",
    "phone": "958 174 3884",
    "website": "N/A",
    "google_maps_url": "https://maps.google.com/?cid=14709405756298907959",
    "rating": 3.6,
    "review_count": 14,
    "price_level": "N/A",
    "hours": "N/A",
    "open_now": "Unknown",
    "types": "",
    "place_id": "ChIJjSsFolApuYURN1FIAZpOIsw"
  },
  {
    "name": "RestoBar del Fondo",
    "category": "Cafes",
    "latitude": 15.6655611,
    "longitude": -96.54417930000001,
    "address": "Avenida principal, centro, 70947 San Agustinillo, Oax., Mexico",
    "phone": "958 272 2860",
    "website": "N/A",
    "google_maps_url": "https://maps.google.com/?cid=5726362099542346354",
    "rating": 4.9,
    "review_count": 137,
    "price_level": "N/A",
    "hours": "Monday: 4:00 – 10:30 PM | Tuesday: 4:00 – 10:30 PM | Wednesday: 4:00 – 10:30 PM | Thursday: 4:00 – 10:30 PM | Friday: 4:00 – 10:30 PM | Saturday: 4:00 – 10:30 PM | Sunday: 4:00 – 10:30 PM",
    "open_now": false,
    "types": "",
    "place_id": "ChIJRTzqlU8puYURckp7bv0feE8"
  },
  {
    "name": "Doba",
    "category": "Cafes",
    "latitude": 15.6667705,
    "longitude": -96.5503552,
    "address": "Av. Paseo del Mazunte SN, 70946 Mazunte, Oax., Mexico",
    "phone": "81 2521 8751",
    "website": "https://linktr.ee/doba.mazunte",
    "google_maps_url": "https://maps.google.com/?cid=15909691854136139509",
    "rating": 4.8,
    "review_count": 330,
    "price_level": "N/A",
    "hours": "Monday: 8:00 AM – 3:30 PM | Tuesday: 8:00 AM – 3:30 PM | Wednesday: 8:00 AM – 3:30 PM | Thursday: 8:00 AM – 3:30 PM | Friday: 8:00 AM – 3:30 PM | Saturday: 8:00 AM – 3:30 PM | Sunday: 8:00 AM – 3:30 PM",
    "open_now": false,
    "types": "",
    "place_id": "ChIJcR7uab0puYUR9d61u3KUytw"
  },
  {
    "name": "Restaurant Lupita",
    "category": "Cafes",
    "latitude": 15.6657989,
    "longitude": -96.54616469999999,
    "address": "México 175 141, 68130 Oaxaca de Juárez, Oax., Mexico",
    "phone": "N/A",
    "website": "N/A",
    "google_maps_url": "https://maps.google.com/?cid=396038952824056268",
    "rating": 2.9,
    "review_count": 19,
    "price_level": "N/A",
    "hours": "N/A",
    "open_now": "Unknown",
    "types": "",
    "place_id": "ChIJKbM6F5QpuYURzKlLTFQDfwU"
  },
  {
    "name": "Mayahuel",
    "category": "Cafes",
    "latitude": 15.6664166,
    "longitude": -96.5559779,
    "address": "Rinconcito, 70947 Mazunte, Oax., Mexico",
    "phone": "N/A",
    "website": "N/A",
    "google_maps_url": "https://maps.google.com/?cid=8955229552058143144",
    "rating": 3.2,
    "review_count": 141,
    "price_level": "N/A",
    "hours": "N/A",
    "open_now": "Unknown",
    "types": "",
    "place_id": "ChIJ11VyCj4ouYURqJGBrNRdR3w"
  },
  {
    "name": "El sueño de Frida",
    "category": "Cafes",
    "latitude": 15.6659511,
    "longitude": -96.54644139999999,
    "address": "Playa San Agustinillo, México 175 141, 70946 San Agustinillo, Oax., Mexico",
    "phone": "55 1902 6359",
    "website": "N/A",
    "google_maps_url": "https://maps.google.com/?cid=3943172371170350872",
    "rating": 4.8,
    "review_count": 253,
    "price_level": "$",
    "hours": "Monday: 8:00 AM – 3:00 PM | Tuesday: 8:00 AM – 3:00 PM | Wednesday: 8:00 AM – 3:00 PM | Thursday: 8:00 AM – 3:00 PM | Friday: 8:00 AM – 3:00 PM | Saturday: 8:00 AM – 3:00 PM | Sunday: Closed",
    "open_now": false,
    "types": "",
    "place_id": "ChIJDXUjITcouYURGFe-N2H2uDY"
  },
  {
    "name": "Chirincoco Restaurant and Cafe",
    "category": "Cafes",
    "latitude": 15.6662024,
    "longitude": -96.5440627,
    "address": "C. Agustivino 10, 70947 San Agustinillo, Oax., Mexico",
    "phone": "55 8561 0503",
    "website": "N/A",
    "google_maps_url": "https://maps.google.com/?cid=10100946765231459172",
    "rating": 4.7,
    "review_count": 63,
    "price_level": "N/A",
    "hours": "Monday: Closed | Tuesday: Closed | Wednesday: Closed | Thursday: 8:30 AM – 1:30 PM | Friday: 8:30 AM – 1:30 PM | Saturday: 8:30 AM – 1:30 PM | Sunday: 8:30 AM – 1:30 PM",
    "open_now": false,
    "types": "",
    "place_id": "ChIJCUMJtHApuYURZIvA3JDFLYw"
  },
  {
    "name": "Restaurante Cacao",
    "category": "Cafes",
    "latitude": 15.6666987,
    "longitude": -96.5628852,
    "address": "Camino de Mermejita Alta S/N, 70946 Mazunte, Oax., Mexico",
    "phone": "951 319 8432",
    "website": "https://www.cocoliahotel.com/#gastronomia?utm_source=gmb&utm_medium=organic",
    "google_maps_url": "https://maps.google.com/?cid=16778807848230807888",
    "rating": 5,
    "review_count": 23,
    "price_level": "N/A",
    "hours": "Monday: 8:00 AM – 10:30 PM | Tuesday: 8:00 AM – 10:30 PM | Wednesday: 8:00 AM – 10:30 PM | Thursday: 8:00 AM – 10:30 PM | Friday: 8:00 AM – 10:30 PM | Saturday: 8:00 AM – 10:30 PM | Sunday: 8:00 AM – 10:30 PM",
    "open_now": false,
    "types": "",
    "place_id": "ChIJ0xm0AKUpuYURUGlVDNdM2ug"
  },
  {
    "name": "Nim San Agustinillo",
    "category": "Cafes",
    "latitude": 15.6661415,
    "longitude": -96.54475920000002,
    "address": "C. la Paz S/N, 70947 San Agustinillo, Oax., Mexico",
    "phone": "N/A",
    "website": "N/A",
    "google_maps_url": "https://maps.google.com/?cid=4408673865948258731",
    "rating": 5,
    "review_count": 1,
    "price_level": "N/A",
    "hours": "N/A",
    "open_now": "Unknown",
    "types": "",
    "place_id": "ChIJXw5omXopuYURq-Fk3oXBLj0"
  },
  {
    "name": "The trip (El viaje de Mar & Yeni)",
    "category": "Cafes",
    "latitude": 15.6656677,
    "longitude": -96.5558477,
    "address": "El mazunte, Rinconcito, Palma Real, 70947 San Pedro Pochutla, Oax., Mexico",
    "phone": "95800000",
    "website": "N/A",
    "google_maps_url": "https://maps.google.com/?cid=683578449096826561",
    "rating": 4.5,
    "review_count": 73,
    "price_level": "N/A",
    "hours": "N/A",
    "open_now": "Unknown",
    "types": "",
    "place_id": "ChIJJRHAvm8puYURwV6HSvqOfAk"
  },
  {
    "name": "Tiburon Juice Bar",
    "category": "Juice Bars",
    "latitude": 15.6660847,
    "longitude": -96.55581769999999,
    "address": "calle rinconcito sin numero, mazunte, 70947 Mazunte, Oax., Mexico",
    "phone": "81 1485 0305",
    "website": "https://www.facebook.com/eltiburonjuicebar/",
    "google_maps_url": "https://maps.google.com/?cid=1596673924119442460",
    "rating": 4.5,
    "review_count": 101,
    "price_level": "N/A",
    "hours": "Monday: 8:00 AM – 3:30 PM | Tuesday: 8:00 AM – 3:30 PM | Wednesday: 8:00 AM – 3:30 PM | Thursday: 8:00 AM – 3:30 PM | Friday: 8:00 AM – 3:30 PM | Saturday: 8:00 AM – 3:30 PM | Sunday: 8:00 AM – 3:30 PM",
    "open_now": false,
    "types": "",
    "place_id": "ChIJTyKHDD4ouYURHLREdXmGKBY"
  },
  {
    "name": "EL MAR",
    "category": "Bars",
    "latitude": 15.6638244,
    "longitude": -96.55603389999999,
    "address": "Calle Rinconcito Mazunte 68000 Mazunte, 70947 Oaxaca, Oax., Mexico",
    "phone": "N/A",
    "website": "N/A",
    "google_maps_url": "https://maps.google.com/?cid=9368934741570279713",
    "rating": 3.7,
    "review_count": 3,
    "price_level": "N/A",
    "hours": "Monday: 12:00 PM – 8:00 AM | Tuesday: 12:00 PM – 8:00 AM | Wednesday: 12:00 PM – 8:00 AM | Thursday: 12:00 PM – 10:00 AM | Friday: 12:00 PM – 10:00 AM | Saturday: 12:00 PM – 10:00 AM | Sunday: 12:00 PM – 8:00 AM",
    "open_now": true,
    "types": "",
    "place_id": "ChIJ69NFEOgpuYURIdkcO4IkBYI"
  },
  {
    "name": "Wamba Cocktails Bar",
    "category": "Bars",
    "latitude": 15.6648378,
    "longitude": -96.5543418,
    "address": "70947 Mazunte, Oax., Mexico",
    "phone": "N/A",
    "website": "N/A",
    "google_maps_url": "https://maps.google.com/?cid=11121204102821690512",
    "rating": 4.6,
    "review_count": 7,
    "price_level": "N/A",
    "hours": "N/A",
    "open_now": "Unknown",
    "types": "",
    "place_id": "ChIJA84bt4spuYURkLxNdzV0Vpo"
  },
  {
    "name": "Bendita",
    "category": "Bars",
    "latitude": 15.6649668,
    "longitude": -96.5560926,
    "address": "Rinconcito s/n, 70946 Mazunte, Oax., Mexico",
    "phone": "958 106 4624",
    "website": "N/A",
    "google_maps_url": "https://maps.google.com/?cid=828951913208277854",
    "rating": 4.8,
    "review_count": 33,
    "price_level": "N/A",
    "hours": "Monday: Closed | Tuesday: Closed | Wednesday: 6:00 – 11:30 PM | Thursday: 6:00 – 11:30 PM | Friday: 6:00 – 11:30 PM | Saturday: 6:00 – 11:30 PM | Sunday: 6:00 – 11:30 PM",
    "open_now": false,
    "types": "",
    "place_id": "ChIJIyBqreApuYURXuuogl8HgQs"
  },
  {
    "name": "La Bodega",
    "category": "Bars",
    "latitude": 15.6650372,
    "longitude": -96.5558989,
    "address": "Rinconcito, 70947 Mazunte, Oax., Mexico",
    "phone": "N/A",
    "website": "N/A",
    "google_maps_url": "https://maps.google.com/?cid=14702079068049606899",
    "rating": 4.8,
    "review_count": 90,
    "price_level": "N/A",
    "hours": "Monday: 8:00 AM – 11:00 PM | Tuesday: 8:00 AM – 11:00 PM | Wednesday: 8:00 AM – 11:00 PM | Thursday: 8:00 AM – 11:00 PM | Friday: 8:00 AM – 11:00 PM | Saturday: 8:00 AM – 11:00 PM | Sunday: Closed",
    "open_now": false,
    "types": "",
    "place_id": "ChIJvQbjx_YpuYUR84jNdgRHCMw"
  },
  {
    "name": "Mezcaleria La punta",
    "category": "Bars",
    "latitude": 15.668763,
    "longitude": -96.55739179999999,
    "address": "México 175 26, 70947 Mazunte, Oax., Mexico",
    "phone": "N/A",
    "website": "N/A",
    "google_maps_url": "https://maps.google.com/?cid=7629768268180758716",
    "rating": 5,
    "review_count": 1,
    "price_level": "N/A",
    "hours": "N/A",
    "open_now": "Unknown",
    "types": "",
    "place_id": "ChIJSy8eDCEpuYURvCB2z9Bh4mk"
  },
  {
    "name": "Cocol Bar",
    "category": "Bars",
    "latitude": 15.6654904,
    "longitude": -96.5535543,
    "address": "Carey, 70947 Mazunte, Oax., Mexico",
    "phone": "954 163 3394",
    "website": "N/A",
    "google_maps_url": "https://maps.google.com/?cid=7221654060584408835",
    "rating": 5,
    "review_count": 46,
    "price_level": "N/A",
    "hours": "Monday: 9:00 AM – 10:00 PM | Tuesday: 9:00 AM – 10:00 PM | Wednesday: 9:00 AM – 10:00 PM | Thursday: 9:00 AM – 10:00 PM | Friday: 9:00 AM – 10:00 PM | Saturday: 9:00 AM – 10:00 PM | Sunday: 9:00 AM – 10:00 PM",
    "open_now": false,
    "types": "",
    "place_id": "ChIJ-7HWvhIpuYURAxfkKxt4OGQ"
  },
  {
    "name": "Pura Vida Mazunte",
    "category": "Bars",
    "latitude": 15.6664343,
    "longitude": -96.5556656,
    "address": "70947 Mazunte, Oax., Mexico",
    "phone": "N/A",
    "website": "N/A",
    "google_maps_url": "https://maps.google.com/?cid=4233699340799487940",
    "rating": 4.8,
    "review_count": 59,
    "price_level": "N/A",
    "hours": "Monday: 8:00 AM – 11:00 PM | Tuesday: 8:00 AM – 11:00 PM | Wednesday: 8:00 AM – 11:00 PM | Thursday: 8:00 AM – 11:00 PM | Friday: 8:00 AM – 11:00 PM | Saturday: 8:00 AM – 11:00 PM | Sunday: 8:00 AM – 11:00 PM",
    "open_now": false,
    "types": "",
    "place_id": "ChIJlbirI3spuYURxK8ojh4fwTo"
  },
  {
    "name": "El MAR",
    "category": "Bars",
    "latitude": 15.665341,
    "longitude": -96.55256899999999,
    "address": "Golfina, 70947 Mazunte, Oax., Mexico",
    "phone": "N/A",
    "website": "N/A",
    "google_maps_url": "https://maps.google.com/?cid=12012811989521560004",
    "rating": 4,
    "review_count": 1,
    "price_level": "N/A",
    "hours": "N/A",
    "open_now": "Unknown",
    "types": "",
    "place_id": "ChIJqScby_gpuYURxHH8nNsUtqY"
  },
  {
    "name": "M",
    "category": "Bars",
    "latitude": 15.6666646,
    "longitude": -96.5500752,
    "address": "Carretera estatal de San Antonio a puerto ángel, OAX / San Antonio, 70946 Mazunte, Oax., Mexico",
    "phone": "N/A",
    "website": "N/A",
    "google_maps_url": "https://maps.google.com/?cid=18281391137694305469",
    "rating": 5,
    "review_count": 1,
    "price_level": "N/A",
    "hours": "N/A",
    "open_now": "Unknown",
    "types": "",
    "place_id": "ChIJJ7gg9hYpuYURvUw-emGMtP0"
  },
  {
    "name": "TRIBU MAZUNTE",
    "category": "Bars",
    "latitude": 15.6680557,
    "longitude": -96.5554537,
    "address": "Avenida principal, 70947 Mazunte, Oax., Mexico",
    "phone": "958 587 9786",
    "website": "https://web.facebook.com/Tribumazunte/?modal=admin_todo_tour",
    "google_maps_url": "https://maps.google.com/?cid=8786262088273945882",
    "rating": 4.5,
    "review_count": 410,
    "price_level": "N/A",
    "hours": "Monday: 3:00 – 11:00 PM | Tuesday: 3:00 – 11:00 PM | Wednesday: 3:00 – 11:00 PM | Thursday: 3:00 – 11:00 PM | Friday: 2:00 – 11:00 PM | Saturday: 3:00 – 11:00 PM | Sunday: 3:00 – 11:00 PM",
    "open_now": false,
    "types": "",
    "place_id": "ChIJcWa-h5wpuYURGuUMU9ES73k"
  },
  {
    "name": "Primo Costa",
    "category": "Bars",
    "latitude": 15.6677839,
    "longitude": -96.55580289999999,
    "address": "Rinconcito, 70947 Mazunte, Oax., Mexico",
    "phone": "N/A",
    "website": "N/A",
    "google_maps_url": "https://maps.google.com/?cid=9452778741752960800",
    "rating": 5,
    "review_count": 26,
    "price_level": "N/A",
    "hours": "Monday: 3:00 – 11:00 PM | Tuesday: 3:00 – 11:00 PM | Wednesday: Closed | Thursday: 3:00 – 11:00 PM | Friday: 3:00 – 11:00 PM | Saturday: 3:00 – 11:00 PM | Sunday: 3:00 – 11:00 PM",
    "open_now": false,
    "types": "",
    "place_id": "ChIJK3JDECgpuYURIJeMwi4EL4M"
  },
  {
    "name": "Restaurant Bar Sol y Mar",
    "category": "Bars",
    "latitude": 15.6654196,
    "longitude": -96.544023,
    "address": "Calle Principal Supermanzana Adoquinado, 70946 San Agustinillo, Oax., Mexico",
    "phone": "951 111 2825",
    "website": "https://www.facebook.com/SolYMarSanAgustinillo",
    "google_maps_url": "https://maps.google.com/?cid=8863581654751322685",
    "rating": 3.8,
    "review_count": 143,
    "price_level": "N/A",
    "hours": "Monday: 8:00 AM – 5:30 PM | Tuesday: 8:00 AM – 5:30 PM | Wednesday: 8:00 AM – 5:30 PM | Thursday: 8:00 AM – 5:30 PM | Friday: 8:00 AM – 5:30 PM | Saturday: 8:00 AM – 5:30 PM | Sunday: 8:00 AM – 5:30 PM",
    "open_now": false,
    "types": "",
    "place_id": "ChIJsywcc9spuYURPSIfwY3EAXs"
  },
  {
    "name": "La Palapa Cometa",
    "category": "Bars",
    "latitude": 15.6667245,
    "longitude": -96.55589739999999,
    "address": "70947, El rinconcito de Mazunte, 70947 Mazunte, Oax., Mexico",
    "phone": "N/A",
    "website": "N/A",
    "google_maps_url": "https://maps.google.com/?cid=5855042355350078467",
    "rating": 4.7,
    "review_count": 767,
    "price_level": "N/A",
    "hours": "Monday: 3:00 – 11:00 PM | Tuesday: 3:00 – 11:00 PM | Wednesday: 3:00 – 11:00 PM | Thursday: 3:00 – 11:00 PM | Friday: 3:00 – 11:00 PM | Saturday: 3:00 – 11:00 PM | Sunday: 3:00 – 11:00 PM",
    "open_now": false,
    "types": "",
    "place_id": "ChIJWQU6rJ8puYURAwSCNwBKQVE"
  },
  {
    "name": "Aikia Restaurante Bar",
    "category": "Bars",
    "latitude": 15.6631654,
    "longitude": -96.525319,
    "address": "CALLE ARCO IRIS 4 Camaron Bay, Playa Zipolite, 70900 ARROYO EL TRES, Oax., Mexico",
    "phone": "N/A",
    "website": "N/A",
    "google_maps_url": "https://maps.google.com/?cid=12783894637133283222",
    "rating": 4.3,
    "review_count": 13,
    "price_level": "N/A",
    "hours": "Monday: 8:00 AM – 6:00 PM | Tuesday: 8:00 AM – 6:00 PM | Wednesday: 8:00 AM – 6:00 PM | Thursday: 8:00 AM – 6:00 PM | Friday: 8:00 AM – 6:00 PM | Saturday: 8:00 AM – 6:00 PM | Sunday: 8:00 AM – 6:00 PM",
    "open_now": false,
    "types": "",
    "place_id": "ChIJuSicdMgpuYURlr9ZxHCEabE"
  },
  {
    "name": "Pacífica - Barecito de Playa",
    "category": "Bars",
    "latitude": 15.661414,
    "longitude": -96.56018979999999,
    "address": "Calle camino a, Cam. Mermejita SN, 70947 Mazunte, Oax., Mexico",
    "phone": "N/A",
    "website": "N/A",
    "google_maps_url": "https://maps.google.com/?cid=15102562968446686906",
    "rating": 5,
    "review_count": 20,
    "price_level": "N/A",
    "hours": "Monday: 10:30 AM – 9:00 PM | Tuesday: Closed | Wednesday: 10:30 AM – 9:00 PM | Thursday: 10:30 AM – 9:00 PM | Friday: 10:30 AM – 9:00 PM | Saturday: 10:30 AM – 9:00 PM | Sunday: 10:30 AM – 9:00 PM",
    "open_now": false,
    "types": "",
    "place_id": "ChIJlSsFrZ4puYURutY7xAAVl9E"
  },
  {
    "name": "La Baguette",
    "category": "Bakeries",
    "latitude": 15.6661144,
    "longitude": -96.5558083,
    "address": "Rinconcito, 70947 Mazunte, Oax., Mexico",
    "phone": "958 109 5599",
    "website": "N/A",
    "google_maps_url": "https://maps.google.com/?cid=2020484169045884147",
    "rating": 4.3,
    "review_count": 453,
    "price_level": "$",
    "hours": "Monday: 7:00 AM – 10:00 PM | Tuesday: 7:00 AM – 10:00 PM | Wednesday: 7:00 AM – 10:00 PM | Thursday: 7:00 AM – 10:00 PM | Friday: 7:00 AM – 10:00 PM | Saturday: 7:00 AM – 10:00 PM | Sunday: 7:00 AM – 10:00 PM",
    "open_now": false,
    "types": "",
    "place_id": "ChIJMfmXCz4ouYUR87xHkqUzChw"
  },
  {
    "name": "Magnolia Pasteleria",
    "category": "Bakeries",
    "latitude": 15.6679675,
    "longitude": -96.55366269999999,
    "address": "70947 Mazunte, Oax., Mexico",
    "phone": "06 98 32 38 58",
    "website": "N/A",
    "google_maps_url": "https://maps.google.com/?cid=3618734400152547847",
    "rating": 5,
    "review_count": 2,
    "price_level": "N/A",
    "hours": "N/A",
    "open_now": "Unknown",
    "types": "",
    "place_id": "ChIJc0Sd8NQpuYURBzKUmcNTODI"
  },
  {
    "name": "Panadería Artesanal La Farina (le fournil)",
    "category": "Bakeries",
    "latitude": 15.6670274,
    "longitude": -96.5470658,
    "address": "Av principal Supermanzana camino entre la lavandería y el grillo, 70949 San Agustinillo, Oax., Mexico",
    "phone": "55 3940 6028",
    "website": "https://www.instagram.com/lafarinasanagustinillo?igsh=Z2NpZjUzaXp4bGdl",
    "google_maps_url": "https://maps.google.com/?cid=16559536681577564227",
    "rating": 4.8,
    "review_count": 19,
    "price_level": "N/A",
    "hours": "Monday: Closed | Tuesday: 8:30 AM – 1:00 PM | Wednesday: 8:30 AM – 1:00 PM | Thursday: 8:30 AM – 1:00 PM | Friday: 8:30 AM – 1:00 PM | Saturday: 8:30 AM – 1:00 PM | Sunday: Closed",
    "open_now": false,
    "types": "",
    "place_id": "ChIJUS93A0spuYURQ0h7LuBKz-U"
  },
  {
    "name": "Empanadas Argentinas San Agustinillo",
    "category": "Bakeries",
    "latitude": 15.6655891,
    "longitude": -96.54390939999999,
    "address": "Carretera principal hacia Mazunte s/n San Agustinillo, 70946 San Agustinillo, Oax., Mexico",
    "phone": "958 118 3248",
    "website": "N/A",
    "google_maps_url": "https://maps.google.com/?cid=8776638753170613135",
    "rating": 4.6,
    "review_count": 14,
    "price_level": "N/A",
    "hours": "Monday: Closed | Tuesday: Closed | Wednesday: 2:00 – 9:00 PM | Thursday: 2:00 – 9:00 PM | Friday: 2:00 – 9:00 PM | Saturday: 2:00 – 9:00 PM | Sunday: 2:00 – 9:00 PM",
    "open_now": false,
    "types": "",
    "place_id": "ChIJoze4_8opuYURj2OpBHLizHk"
  },
  {
    "name": "El Gecko Mazunte",
    "category": "Bakeries",
    "latitude": 15.6649974,
    "longitude": -96.5561097,
    "address": "Rinconcito 70947, 70948 Mazunte, Oax., Mexico",
    "phone": "N/A",
    "website": "N/A",
    "google_maps_url": "https://maps.google.com/?cid=11299746060388948330",
    "rating": 4.8,
    "review_count": 88,
    "price_level": "N/A",
    "hours": "Monday: 12:30 – 10:00 PM | Tuesday: 12:30 – 10:30 PM | Wednesday: 12:30 – 10:00 PM | Thursday: 12:30 – 10:00 PM | Friday: 12:30 – 10:00 PM | Saturday: 12:30 – 10:00 PM | Sunday: 12:30 – 10:30 PM",
    "open_now": false,
    "types": "",
    "place_id": "ChIJkwqT-J0puYURalmaXSzD0Jw"
  },
  {
    "name": "Las Delicias de Ale y Clau",
    "category": "Bakeries",
    "latitude": 15.6766633,
    "longitude": -96.56863589999999,
    "address": "México 175 sn, El Zapotal, 70947 Oax., Mexico",
    "phone": "958 122 0700",
    "website": "N/A",
    "google_maps_url": "https://maps.google.com/?cid=16026009239961324052",
    "rating": "N/A",
    "review_count": "N/A",
    "price_level": "N/A",
    "hours": "Monday: Closed | Tuesday: 8:00 AM – 5:00 PM | Wednesday: 8:00 AM – 5:00 PM | Thursday: 8:00 AM – 5:00 PM | Friday: 8:00 AM – 5:00 PM | Saturday: 8:00 AM – 5:00 PM | Sunday: 8:00 AM – 5:00 PM",
    "open_now": false,
    "types": "",
    "place_id": "ChIJ2U51gFMpuYURFMoFi37SZ94"
  },
  {
    "name": "El Café de la Luz",
    "category": "Bakeries",
    "latitude": 15.6647822,
    "longitude": -96.5558495,
    "address": "Rinconcito, 70946 Mazunte, Oax., Mexico",
    "phone": "322 348 4276",
    "website": "N/A",
    "google_maps_url": "https://maps.google.com/?cid=286853605493083512",
    "rating": 4.7,
    "review_count": 41,
    "price_level": "N/A",
    "hours": "N/A",
    "open_now": "Unknown",
    "types": "",
    "place_id": "ChIJB5NTkiQpuYUReI30mdUb-wM"
  },
  {
    "name": "Hridaya Yoga",
    "category": "Yoga Studios",
    "latitude": 15.6666347,
    "longitude": -96.5484559,
    "address": "Hridaya Yoga Center, 70949 Mazunte, Oax., Mexico",
    "phone": "958 688 5889",
    "website": "http://www.hridaya-yoga.com/",
    "google_maps_url": "https://maps.google.com/?cid=16695909594905015257",
    "rating": 4.8,
    "review_count": 121,
    "price_level": "N/A",
    "hours": "Monday: 8:00 AM – 3:30 PM | Tuesday: 8:00 AM – 3:30 PM | Wednesday: 8:00 AM – 3:30 PM | Thursday: 8:00 AM – 3:30 PM | Friday: 8:00 AM – 3:30 PM | Saturday: 9:00 AM – 3:30 PM | Sunday: Closed",
    "open_now": false,
    "types": "",
    "place_id": "ChIJ_dB3OTwouYUR2XNZXlHJs-c"
  },
  {
    "name": "Kairos Studio",
    "category": "Yoga Studios",
    "latitude": 15.6668577,
    "longitude": -96.552881,
    "address": "avenida principal, Golfina, 70947 Mazunte, Oax., Mexico",
    "phone": "N/A",
    "website": "N/A",
    "google_maps_url": "https://maps.google.com/?cid=14085685024745991148",
    "rating": 5,
    "review_count": 7,
    "price_level": "N/A",
    "hours": "Monday: 8:00 AM – 9:00 PM | Tuesday: 8:00 AM – 9:00 PM | Wednesday: 8:00 AM – 9:00 PM | Thursday: 8:00 AM – 9:00 PM | Friday: 8:00 AM – 9:00 PM | Saturday: 8:00 AM – 9:00 PM | Sunday: 8:00 AM – 9:00 PM",
    "open_now": false,
    "types": "",
    "place_id": "ChIJ5xjXfqUpuYUR7CsGnuZnesM"
  },
  {
    "name": "Akasha Yoga, Dance and Martial Arts",
    "category": "Yoga Studios",
    "latitude": 15.6668676,
    "longitude": -96.5478884,
    "address": "Carretera Principal Mazunte - San Agustinillo, 70947 Mazunte, Oax., Mexico",
    "phone": "951 509 7114",
    "website": "N/A",
    "google_maps_url": "https://maps.google.com/?cid=10178176862124644214",
    "rating": 5,
    "review_count": 10,
    "price_level": "N/A",
    "hours": "Monday: 8:00 AM – 8:00 PM | Tuesday: 8:00 AM – 8:00 PM | Wednesday: 8:00 AM – 8:00 PM | Thursday: 8:00 AM – 8:00 PM | Friday: 8:00 AM – 8:00 PM | Saturday: 8:00 AM – 8:00 PM | Sunday: 8:00 AM – 8:00 PM",
    "open_now": false,
    "types": "",
    "place_id": "ChIJ89Mm_VwpuYURdhcKCO4lQI0"
  },
  {
    "name": "Meditation Station",
    "category": "Yoga Studios",
    "latitude": 15.6665628,
    "longitude": -96.54993990000001,
    "address": "Calle Principal SN, entre el Museo de la Tortuga y Hridaya Yoga, 70947 Mazunte, Oax., Mexico",
    "phone": "958 144 6080",
    "website": "http://www.mazuntehealing.com/",
    "google_maps_url": "https://maps.google.com/?cid=3978851697232622911",
    "rating": 4.9,
    "review_count": 79,
    "price_level": "N/A",
    "hours": "Monday: 8:00 AM – 6:00 PM | Tuesday: 8:00 AM – 6:00 PM | Wednesday: 8:00 AM – 6:00 PM | Thursday: 8:00 AM – 6:00 PM | Friday: 8:00 AM – 6:00 PM | Saturday: 8:00 AM – 6:00 PM | Sunday: 8:00 AM – 6:00 PM",
    "open_now": false,
    "types": "",
    "place_id": "ChIJH8_w3lspuYURP7WCq4m4Nzc"
  },
  {
    "name": "Semanawak Temazcal & Yoga",
    "category": "Yoga Studios",
    "latitude": 15.6668396,
    "longitude": -96.55280379999999,
    "address": "Av.Paseo del Mazunte sin, frente a la esquina poniente del Centro Mexicano de la Tortuga en, Supermanzana número, 70947 Mazunte, Oax., Mexico",
    "phone": "958 122 9816",
    "website": "https://instagram.com/semanawakmazunte?igshid=YmMyMTA2M2Y=",
    "google_maps_url": "https://maps.google.com/?cid=14557798422577930970",
    "rating": 4.8,
    "review_count": 23,
    "price_level": "N/A",
    "hours": "Monday: 8:00 AM – 6:00 PM | Tuesday: 8:00 AM – 6:00 PM | Wednesday: 8:00 AM – 6:00 PM | Thursday: 8:00 AM – 6:00 PM | Friday: 8:00 AM – 6:00 PM | Saturday: 8:00 AM – 6:00 PM | Sunday: 8:00 AM – 6:00 PM",
    "open_now": false,
    "types": "",
    "place_id": "ChIJ28k7mkApuYUR2uJ_6YiwB8o"
  },
  {
    "name": "Solstice Yoga Center",
    "category": "Yoga Studios",
    "latitude": 15.6660379,
    "longitude": -96.5448298,
    "address": "Cabañas Las Tres Marías, 70947 San Agustinillo, Oax., Mexico",
    "phone": "N/A",
    "website": "https://restorativealignment.com/",
    "google_maps_url": "https://maps.google.com/?cid=4849119337103747258",
    "rating": "N/A",
    "review_count": "N/A",
    "price_level": "N/A",
    "hours": "N/A",
    "open_now": "Unknown",
    "types": "",
    "place_id": "ChIJ850AODcouYURuuiLaViIS0M"
  },
  {
    "name": "Kinam Mazunte",
    "category": "Yoga Studios",
    "latitude": 15.6688677,
    "longitude": -96.5538273,
    "address": "al lado de Posada la Huerta, Camino Al Alguaje S/N, 70947 Mazunte, Oax., Mexico",
    "phone": "958 106 8640",
    "website": "N/A",
    "google_maps_url": "https://maps.google.com/?cid=2000919200363834705",
    "rating": "N/A",
    "review_count": "N/A",
    "price_level": "N/A",
    "hours": "Monday: 8:00 AM – 8:00 PM | Tuesday: 8:00 AM – 8:00 PM | Wednesday: 8:00 AM – 8:00 PM | Thursday: 8:00 AM – 8:00 PM | Friday: 8:00 AM – 8:00 PM | Saturday: 8:00 AM – 8:00 PM | Sunday: 8:00 AM – 8:00 PM",
    "open_now": false,
    "types": "",
    "place_id": "ChIJDUDJbMUpuYURUe3xUWmxxBs"
  },
  {
    "name": "La Nada Mazunte",
    "category": "Yoga Studios",
    "latitude": 15.6724634,
    "longitude": -96.5598596,
    "address": "Carretara Mazunte - Ventanilla El Mirador, 70947 Mazunte, Oax., Mexico",
    "phone": "442 452 7717",
    "website": "https://www.facebook.com/La-Nada-100151065005292/",
    "google_maps_url": "https://maps.google.com/?cid=9524414170454386567",
    "rating": 4.8,
    "review_count": 109,
    "price_level": "N/A",
    "hours": "Monday: Open 24 hours | Tuesday: Open 24 hours | Wednesday: Open 24 hours | Thursday: Open 24 hours | Friday: Open 24 hours | Saturday: Open 24 hours | Sunday: Open 24 hours",
    "open_now": true,
    "types": "",
    "place_id": "ChIJp5Se7dwpuYURh2ehuzmELYQ"
  },
  {
    "name": "Las Lemurias",
    "category": "Yoga Studios",
    "latitude": 15.6623802,
    "longitude": -96.5589518,
    "address": "Calle Punta cometa, Cam. a Playa Mermejita 9-9, 70949 Mazunte, Oax., Mexico",
    "phone": "958 219 8204",
    "website": "N/A",
    "google_maps_url": "https://maps.google.com/?cid=9003537667789095996",
    "rating": 5,
    "review_count": 4,
    "price_level": "N/A",
    "hours": "Monday: 8:00 AM – 9:00 PM | Tuesday: 8:00 AM – 9:00 PM | Wednesday: 8:00 – 9:00 AM | Thursday: 8:00 AM – 9:00 PM | Friday: 8:00 AM – 9:00 PM | Saturday: 8:00 AM – 9:00 PM | Sunday: 8:00 AM – 9:00 PM",
    "open_now": false,
    "types": "",
    "place_id": "ChIJ542LC2wpuYURPARrWs798nw"
  },
  {
    "name": "Centro Nijo",
    "category": "Yoga Studios",
    "latitude": 15.6855569,
    "longitude": -96.5700943,
    "address": "Carretera San Antonio - Mazunte s/n Comunidad El Zapotal, 70946 Santa María Tonameca, Oax., Mexico",
    "phone": "958 100 8420",
    "website": "http://www.centronijo.com/",
    "google_maps_url": "https://maps.google.com/?cid=9351913950298765522",
    "rating": 4.9,
    "review_count": 21,
    "price_level": "N/A",
    "hours": "Monday: Closed | Tuesday: 10:00 AM – 2:00 PM | Wednesday: 10:00 AM – 2:00 PM | Thursday: 10:00 AM – 2:00 PM | Friday: 10:00 AM – 2:00 PM | Saturday: 10:00 AM – 2:00 PM | Sunday: Closed",
    "open_now": false,
    "types": "",
    "place_id": "ChIJj-y0pv3XuIUR0viTcTCsyIE"
  },
  {
    "name": "Bliss Haven Retreat Centre & Hotel",
    "category": "Yoga Studios",
    "latitude": 15.6677938,
    "longitude": -96.55081849999999,
    "address": "C. Tamarindos S/N, 70947 Mazunte, Oax., Mexico",
    "phone": "958 128 8226",
    "website": "http://www.blisshaven.yoga/",
    "google_maps_url": "https://maps.google.com/?cid=91887312529474445",
    "rating": 4.4,
    "review_count": 23,
    "price_level": "N/A",
    "hours": "N/A",
    "open_now": "Unknown",
    "types": "",
    "place_id": "ChIJg_WqUAopuYURjUOvHgZzRgE"
  },
  {
    "name": "Posada Rancho Cerro Largo",
    "category": "Yoga Studios",
    "latitude": 15.6649022,
    "longitude": -96.5356066,
    "address": "San Agustinilllo S/N, Col. Playa Aragón, 70946 Santa María Tonameca, Oax., Mexico",
    "phone": "N/A",
    "website": "https://ranchocerrolargo.wixsite.com/ranchocerrolargo",
    "google_maps_url": "https://maps.google.com/?cid=2374948082675943305",
    "rating": 4.8,
    "review_count": 68,
    "price_level": "N/A",
    "hours": "N/A",
    "open_now": "Unknown",
    "types": "",
    "place_id": "ChIJL0qWK8spuYURiQflu7KC9SA"
  },
  {
    "name": "Mitotecali Danza y Yoga",
    "category": "Yoga Studios",
    "latitude": 15.6683965,
    "longitude": -96.5571047,
    "address": "Av. Principal Mazunte, Frente al mercado Orgánico de los domingos, frente de Restaurant la Empada, Supermanzana En, 70947 Mazunte, Oax., Mexico",
    "phone": "958 128 0944",
    "website": "https://www.facebook.com/Mitote_cali2022",
    "google_maps_url": "https://maps.google.com/?cid=15505051203931523553",
    "rating": 4.3,
    "review_count": 12,
    "price_level": "N/A",
    "hours": "Monday: 8:00 AM – 8:00 PM | Tuesday: 8:00 AM – 8:00 PM | Wednesday: 8:00 AM – 8:00 PM | Thursday: 8:00 AM – 8:00 PM | Friday: 8:00 AM – 8:00 PM | Saturday: 8:00 AM – 8:00 PM | Sunday: 8:00 AM – 8:00 PM",
    "open_now": false,
    "types": "",
    "place_id": "ChIJ_zZiTTkpuYUR4cmUsusBLdc"
  },
  {
    "name": "El Grillo",
    "category": "Yoga Studios",
    "latitude": 15.6677919,
    "longitude": -96.5556763,
    "address": "Rinconcito Supermanzana en, 70947 Mazunte, Oax., Mexico",
    "phone": "N/A",
    "website": "N/A",
    "google_maps_url": "https://maps.google.com/?cid=4568006826491347185",
    "rating": 4.3,
    "review_count": 23,
    "price_level": "N/A",
    "hours": "Monday: 7:00 AM – 10:00 PM | Tuesday: 7:00 AM – 10:00 PM | Wednesday: 7:00 AM – 10:00 PM | Thursday: 7:00 AM – 10:00 PM | Friday: 7:00 AM – 10:00 PM | Saturday: 7:00 AM – 10:00 PM | Sunday: 9:00 AM – 3:00 PM",
    "open_now": false,
    "types": "",
    "place_id": "ChIJrXVPrQ4puYUR8YCToAHSZD8"
  },
  {
    "name": "Masaje con sentido",
    "category": "Yoga Studios",
    "latitude": 15.6669805,
    "longitude": -96.5559444,
    "address": "frente a \"Puro corazón, Rinconcito s/n, 70947 Mazunte, Oax., Mexico",
    "phone": "N/A",
    "website": "N/A",
    "google_maps_url": "https://maps.google.com/?cid=9967790719145314560",
    "rating": 4.9,
    "review_count": 118,
    "price_level": "N/A",
    "hours": "Monday: 10:00 AM – 9:00 PM | Tuesday: 10:00 AM – 9:00 PM | Wednesday: 10:00 AM – 9:00 PM | Thursday: 10:00 AM – 9:00 PM | Friday: 10:00 AM – 9:00 PM | Saturday: 10:00 AM – 9:00 PM | Sunday: 10:00 AM – 9:00 PM",
    "open_now": false,
    "types": "",
    "place_id": "ChIJlcokAeApuYURAIkX8ti0VIo"
  },
  {
    "name": "Restorative Yoga Backmitra",
    "category": "Yoga Studios",
    "latitude": 15.6657781,
    "longitude": -96.5493817,
    "address": "Cerrada del Museo S/N, 70946, 70947 Mazunte, Oax., Mexico",
    "phone": "011 15-5619-1151",
    "website": "N/A",
    "google_maps_url": "https://maps.google.com/?cid=11861908875357157314",
    "rating": "N/A",
    "review_count": "N/A",
    "price_level": "N/A",
    "hours": "N/A",
    "open_now": "Unknown",
    "types": "",
    "place_id": "ChIJgcwWnbMpuYURwne3aUb3naQ"
  },
  {
    "name": "CAMP",
    "category": "Yoga Studios",
    "latitude": 15.6648691,
    "longitude": -96.5248216,
    "address": "C. las Casitas 51, Playa Zipolite, 70947 Arroyo Tres, Oax., Mexico",
    "phone": "N/A",
    "website": "https://camp.mx/",
    "google_maps_url": "https://maps.google.com/?cid=9731073114288166711",
    "rating": 4.6,
    "review_count": 73,
    "price_level": "N/A",
    "hours": "Monday: Open 24 hours | Tuesday: Open 24 hours | Wednesday: Open 24 hours | Thursday: Open 24 hours | Friday: Open 24 hours | Saturday: Open 24 hours | Sunday: Open 24 hours",
    "open_now": true,
    "types": "",
    "place_id": "ChIJwWSaKcYpuYURNxeApHC3C4c"
  },
  {
    "name": "Las Tres Marias",
    "category": "Yoga Studios",
    "latitude": 15.6663151,
    "longitude": -96.5449573,
    "address": "San Agustinillo, 70946 Oax., Mexico",
    "phone": "958 100 4044",
    "website": "N/A",
    "google_maps_url": "https://maps.google.com/?cid=8881688992873930557",
    "rating": 4.4,
    "review_count": 154,
    "price_level": "N/A",
    "hours": "N/A",
    "open_now": "Unknown",
    "types": "",
    "place_id": "ChIJNfNZQTcouYURPV-_8RQZQns"
  },
  {
    "name": "OSTEOPATH MAZUNTE",
    "category": "Yoga Studios",
    "latitude": 15.66706,
    "longitude": -96.5481406,
    "address": "Carretera Principal Mazunte - San Agustinillo, 70947 Mazunte, Oax., Mexico",
    "phone": "951 509 7114",
    "website": "http://www.osteopathyakasha.com/",
    "google_maps_url": "https://maps.google.com/?cid=8153170506119288821",
    "rating": 5,
    "review_count": 93,
    "price_level": "N/A",
    "hours": "Monday: Open 24 hours | Tuesday: Open 24 hours | Wednesday: Open 24 hours | Thursday: Open 24 hours | Friday: Open 24 hours | Saturday: Open 24 hours | Sunday: Open 24 hours",
    "open_now": true,
    "types": "",
    "place_id": "ChIJvSAb35spuYUR9ZduwmDhJXE"
  },
  {
    "name": "The Santosha Refuge",
    "category": "Yoga Studios",
    "latitude": 15.667776,
    "longitude": -96.55085170000001,
    "address": "C. Tamarindos S/N, 70947 Mazunte, Oax., Mexico",
    "phone": "958 128 8226",
    "website": "https://www.thesantosharefuge.com/",
    "google_maps_url": "https://maps.google.com/?cid=17493832032796720027",
    "rating": 5,
    "review_count": 2,
    "price_level": "N/A",
    "hours": "N/A",
    "open_now": "Unknown",
    "types": "",
    "place_id": "ChIJz09XyX8puYURm7syK4yTxvI"
  },
  {
    "name": "euritmia",
    "category": "Massage & Spa",
    "latitude": 15.6676798,
    "longitude": -96.55453999999999,
    "address": "tegochines sn, 70947 Mazunte, Oax., Mexico",
    "phone": "81 2395 3542",
    "website": "N/A",
    "google_maps_url": "https://maps.google.com/?cid=16859395066452954211",
    "rating": 5,
    "review_count": 3,
    "price_level": "N/A",
    "hours": "Monday: Open 24 hours | Tuesday: Open 24 hours | Wednesday: Open 24 hours | Thursday: Open 24 hours | Friday: Open 24 hours | Saturday: Open 24 hours | Sunday: Open 24 hours",
    "open_now": true,
    "types": "",
    "place_id": "ChIJhQ2gEsYpuYURY8zm73ya-Ok"
  },
  {
    "name": "Haircuts Diana",
    "category": "Massage & Spa",
    "latitude": 15.667555,
    "longitude": -96.5572942,
    "address": "Calle Bugambilias 7, 70946 Mazunte, Oax., Mexico",
    "phone": "984 144 1043",
    "website": "N/A",
    "google_maps_url": "https://maps.google.com/?cid=3652241453808398209",
    "rating": 5,
    "review_count": 7,
    "price_level": "N/A",
    "hours": "Monday: Open 24 hours | Tuesday: Open 24 hours | Wednesday: Open 24 hours | Thursday: Open 24 hours | Friday: Open 24 hours | Saturday: Open 24 hours | Sunday: Open 24 hours",
    "open_now": true,
    "types": "",
    "place_id": "ChIJsZq1EJMpuYURga80eEBerzI"
  },
  {
    "name": "SPA TAMARINDO",
    "category": "Massage & Spa",
    "latitude": 15.6665029,
    "longitude": -96.5235616,
    "address": "arroyo 3, Playa Zipolite, 70947 zipolite, Oax., Mexico",
    "phone": "55 5987 2698",
    "website": "N/A",
    "google_maps_url": "https://maps.google.com/?cid=11751658849254726125",
    "rating": 4.5,
    "review_count": 8,
    "price_level": "N/A",
    "hours": "Monday: 9:00 AM – 7:00 PM | Tuesday: 9:00 AM – 7:00 PM | Wednesday: 9:00 AM – 7:00 PM | Thursday: 9:00 AM – 7:00 PM | Friday: 9:00 AM – 7:00 PM | Saturday: 9:00 AM – 7:00 PM | Sunday: Closed",
    "open_now": false,
    "types": "",
    "place_id": "ChIJaxugQYspuYUR7Vln33VHFqM"
  },
  {
    "name": "Masajes Espacio Terapéutico Casa San Agus",
    "category": "Massage & Spa",
    "latitude": 15.6659551,
    "longitude": -96.546075,
    "address": "Calle principal sn, San Agustinillo, 70946 San Agustinillo, Oax., Mexico",
    "phone": "958 111 0251",
    "website": "https://www.facebook.com/profile.php?id=100086669983874",
    "google_maps_url": "https://maps.google.com/?cid=15566987861799495491",
    "rating": 4.6,
    "review_count": 14,
    "price_level": "N/A",
    "hours": "Monday: 10:00 AM – 6:00 PM | Tuesday: 10:00 AM – 6:00 PM | Wednesday: 10:00 AM – 6:00 PM | Thursday: 10:00 AM – 6:00 PM | Friday: 10:00 AM – 6:00 PM | Saturday: 10:00 AM – 6:00 PM | Sunday: Closed",
    "open_now": false,
    "types": "",
    "place_id": "ChIJFX-5pxgpuYURQ2dgnfsMCdg"
  },
  {
    "name": "Kalli massages & Energy healing",
    "category": "Massage & Spa",
    "latitude": 15.6616753,
    "longitude": -96.5600865,
    "address": "Cam. a Playa Mermejita, 70947 Mazunte, Oax., Mexico",
    "phone": "55 2863 0623",
    "website": "https://www.astralkalli.com/",
    "google_maps_url": "https://maps.google.com/?cid=844802958337017458",
    "rating": 5,
    "review_count": 24,
    "price_level": "N/A",
    "hours": "Monday: 10:00 AM – 9:00 PM | Tuesday: 10:00 AM – 9:00 PM | Wednesday: 10:00 AM – 9:00 PM | Thursday: 10:00 AM – 9:00 PM | Friday: 10:00 AM – 9:00 PM | Saturday: 10:00 AM – 9:00 PM | Sunday: 9:00 AM – 5:00 PM",
    "open_now": false,
    "types": "",
    "place_id": "ChIJQ_b8KQYpuYURcobgjNBXuQs"
  },
  {
    "name": "Cranial Bliss Therapy Massage with Aimee",
    "category": "Massage & Spa",
    "latitude": 15.6666494,
    "longitude": -96.54582459999999,
    "address": "Calle Principal, 70947 San Agustinillo, Oax., Mexico",
    "phone": "0210 661 826",
    "website": "https://www.aimsinlove.com/",
    "google_maps_url": "https://maps.google.com/?cid=10263782846785916564",
    "rating": "N/A",
    "review_count": "N/A",
    "price_level": "N/A",
    "hours": "Monday: 9:00 AM – 4:00 PM | Tuesday: 9:00 AM – 4:00 PM | Wednesday: 9:00 AM – 4:00 PM | Thursday: 9:00 AM – 4:00 PM | Friday: 9:00 AM – 4:00 PM | Saturday: 9:00 AM – 4:00 PM | Sunday: 9:00 AM – 4:00 PM",
    "open_now": false,
    "types": "",
    "place_id": "ChIJAV7hKecpuYURlA5sih5IcI4"
  },
  {
    "name": "Cocodrilo Enamorado Mazunte",
    "category": "Massage & Spa",
    "latitude": 15.6769542,
    "longitude": -96.565606,
    "address": "Km 175 Rumbo a Mazunte, 70946 Pochutla, Oax., Mexico",
    "phone": "958 118 6239",
    "website": "N/A",
    "google_maps_url": "https://maps.google.com/?cid=4406816702921284161",
    "rating": 5,
    "review_count": 5,
    "price_level": "N/A",
    "hours": "Monday: 9:00 AM – 11:00 PM | Tuesday: 9:00 AM – 11:00 PM | Wednesday: 9:00 AM – 11:00 PM | Thursday: 9:00 AM – 11:00 PM | Friday: 9:00 AM – 11:00 PM | Saturday: 9:00 AM – 11:00 PM | Sunday: 9:00 AM – 3:00 PM",
    "open_now": false,
    "types": "",
    "place_id": "ChIJMYT5tDEpuYURQZrhZ3EoKD0"
  },
  {
    "name": "Zazil Retreat",
    "category": "Massage & Spa",
    "latitude": 15.6685859,
    "longitude": -96.5435529,
    "address": "Unnamed Road, 70947 San Agustinillo, Oax., Mexico",
    "phone": "55 1191 3964",
    "website": "http://zazilretreat.com/",
    "google_maps_url": "https://maps.google.com/?cid=3765550403382682310",
    "rating": 4.1,
    "review_count": 67,
    "price_level": "N/A",
    "hours": "N/A",
    "open_now": "Unknown",
    "types": "",
    "place_id": "ChIJ4YXz8DAouYURxiJ0ISTsQTQ"
  },
  {
    "name": "Posada \"El Titanic\"",
    "category": "Wellness Centers",
    "latitude": 15.6667884,
    "longitude": -96.555802,
    "address": "Rinconcito SN, 70947 Mazunte, Oax., Mexico",
    "phone": "958 107 3090",
    "website": "N/A",
    "google_maps_url": "https://maps.google.com/?cid=12355223765057102279",
    "rating": 5,
    "review_count": 5,
    "price_level": "N/A",
    "hours": "N/A",
    "open_now": "Unknown",
    "types": "",
    "place_id": "ChIJIeCFQbYpuYURx2GxtI2Sdqs"
  },
  {
    "name": "Casa de los Magos",
    "category": "Wellness Centers",
    "latitude": 15.6699086,
    "longitude": -96.5767793,
    "address": "Camino al Manglar, 70947 La Ventanilla, Oax., Mexico",
    "phone": "55 1511 6170",
    "website": "N/A",
    "google_maps_url": "https://maps.google.com/?cid=14324640992101023061",
    "rating": 5,
    "review_count": 2,
    "price_level": "N/A",
    "hours": "N/A",
    "open_now": "Unknown",
    "types": "",
    "place_id": "ChIJswhe0wIpuYURVT0uTRZZy8Y"
  },
  {
    "name": "Mukti Bukti",
    "category": "Wellness Centers",
    "latitude": 15.6659039,
    "longitude": -96.5303763,
    "address": "Cam. Aragón, 70947 Oax., Mexico",
    "phone": "222 215 3317",
    "website": "http://www.experienciaswellness.io/",
    "google_maps_url": "https://maps.google.com/?cid=764290646044255936",
    "rating": 5,
    "review_count": 2,
    "price_level": "N/A",
    "hours": "Monday: Open 24 hours | Tuesday: Open 24 hours | Wednesday: Open 24 hours | Thursday: Open 24 hours | Friday: Open 24 hours | Saturday: Open 24 hours | Sunday: Open 24 hours",
    "open_now": true,
    "types": "",
    "place_id": "ChIJ3UO4o4MpuYURwCafDktOmwo"
  },
  {
    "name": "Tantra Ritual",
    "category": "Wellness Centers",
    "latitude": 15.6670213,
    "longitude": -96.5485502,
    "address": "Ctra. Mazunte – San Agustinillo s/n, 70947 Mazunte, Oax., Mexico",
    "phone": "N/A",
    "website": "https://tantraritual.com/",
    "google_maps_url": "https://maps.google.com/?cid=1856666786795060624",
    "rating": "N/A",
    "review_count": "N/A",
    "price_level": "N/A",
    "hours": "N/A",
    "open_now": "Unknown",
    "types": "",
    "place_id": "ChIJPaefTRcpuYURkH0vBZs0xBk"
  },
  {
    "name": "Equilia: Medicina Integrativa",
    "category": "Wellness Centers",
    "latitude": 15.6669117,
    "longitude": -96.5510989,
    "address": "calle principal sin numero, 70946 Mazunte, Oax., Mexico",
    "phone": "55 5964 6412",
    "website": "N/A",
    "google_maps_url": "https://maps.google.com/?cid=15105351514518473944",
    "rating": 5,
    "review_count": 22,
    "price_level": "N/A",
    "hours": "Monday: 11:00 AM – 4:00 PM | Tuesday: 11:00 AM – 4:00 PM | Wednesday: 11:00 AM – 4:00 PM | Thursday: 11:00 AM – 4:00 PM | Friday: 11:00 AM – 4:00 PM | Saturday: Closed | Sunday: Closed",
    "open_now": false,
    "types": "",
    "place_id": "ChIJeaFssPkpuYUR2ExIviv9oNE"
  },
  {
    "name": "Aguila Blanca Reiki",
    "category": "Healing Centers",
    "latitude": 15.6694819,
    "longitude": -96.5555176,
    "address": "S/N, 70946 Mazunte, Oax., Mexico",
    "phone": "958 115 0700",
    "website": "https://aguilablancaweb.wixsite.com/website",
    "google_maps_url": "https://maps.google.com/?cid=15374216545899669230",
    "rating": 4.8,
    "review_count": 24,
    "price_level": "N/A",
    "hours": "Monday: 9:00 AM – 1:00 PM, 4:00 – 6:00 PM | Tuesday: 9:00 AM – 1:00 PM, 4:00 – 6:00 PM | Wednesday: 9:00 AM – 1:00 PM, 4:00 – 6:00 PM | Thursday: 4:00 AM – 6:00 PM | Friday: 9:00 AM – 1:00 PM, 4:00 – 6:00 PM | Saturday: 4:00 AM – 6:00 PM | Sunday: Closed",
    "open_now": false,
    "types": "",
    "place_id": "ChIJ90SKFIYpuYUR7mZIDn4wXNU"
  },
  {
    "name": "Private Bufo Alvarius Ceremonies & Retreats - Isa Lucia",
    "category": "Healing Centers",
    "latitude": 15.6698027,
    "longitude": -96.53881109999999,
    "address": "Colonia la laja por el arroyo, 70947 San Agustinillo, Oax., Mexico",
    "phone": "55 2092 6420",
    "website": "https://isalucia.com/?utm_source=gmb&utm_medium=referral&utm_campaign=gmbg",
    "google_maps_url": "https://maps.google.com/?cid=4346430262448573522",
    "rating": 4.9,
    "review_count": 14,
    "price_level": "N/A",
    "hours": "Monday: 9:00 AM – 5:00 PM | Tuesday: 9:00 AM – 5:00 PM | Wednesday: 9:00 AM – 5:00 PM | Thursday: 9:00 AM – 5:00 PM | Friday: 9:00 AM – 5:00 PM | Saturday: 9:00 AM – 5:00 PM | Sunday: 9:00 AM – 5:00 PM",
    "open_now": false,
    "types": "",
    "place_id": "ChIJdz0_6fQpuYURUkxBmkufUTw"
  },
  {
    "name": "Healing Hut",
    "category": "Healing Centers",
    "latitude": 15.6654204,
    "longitude": -96.5424896,
    "address": "Avenida, 70947 San Agustinillo, Oax., Mexico",
    "phone": "958 173 7274",
    "website": "N/A",
    "google_maps_url": "https://maps.google.com/?cid=5904665761096966823",
    "rating": "N/A",
    "review_count": "N/A",
    "price_level": "N/A",
    "hours": "N/A",
    "open_now": "Unknown",
    "types": "",
    "place_id": "ChIJnQL-kz8puYURp6KYtzmW8VE"
  },
  {
    "name": "Celeste del Mar",
    "category": "Hotels & Hostels",
    "latitude": 15.6623705,
    "longitude": -96.55987789999999,
    "address": "Cam. a Playa Mermejita S/N, 70946 ﻿Mazunte, Oax., Mexico",
    "phone": "958 107 5296",
    "website": "N/A",
    "google_maps_url": "https://maps.google.com/?cid=15950221897609060339",
    "rating": 4.3,
    "review_count": 41,
    "price_level": "N/A",
    "hours": "N/A",
    "open_now": "Unknown",
    "types": "",
    "place_id": "ChIJtwYc2BQouYUR8x-l106SWt0"
  },
  {
    "name": "Un Sueño Cabañas del Pacifico",
    "category": "Hotels & Hostels",
    "latitude": 15.6658112,
    "longitude": -96.5430081,
    "address": "70940 San Agustinillo, Oax., Mexico",
    "phone": "958 113 8749",
    "website": "http://www.unsueno.mx/",
    "google_maps_url": "https://maps.google.com/?cid=16101510084385722326",
    "rating": 4.5,
    "review_count": 405,
    "price_level": "N/A",
    "hours": "N/A",
    "open_now": "Unknown",
    "types": "",
    "place_id": "ChIJgfyJ5zYouYUR1k8uvxwOdN8"
  },
  {
    "name": "Casa Pan de Miel",
    "category": "Hotels & Hostels",
    "latitude": 15.6652708,
    "longitude": -96.5487442,
    "address": "Cda. Museo de la Tortuga s/n, 70946 Mazunte, Oax., Mexico",
    "phone": "958 100 4719",
    "website": "N/A",
    "google_maps_url": "https://maps.google.com/?cid=7796760992287052076",
    "rating": 4.7,
    "review_count": 247,
    "price_level": "N/A",
    "hours": "N/A",
    "open_now": "Unknown",
    "types": "",
    "place_id": "ChIJB9_AXjsouYURLFHkP9CoM2w"
  },
  {
    "name": "Casa Mermejita",
    "category": "Hotels & Hostels",
    "latitude": 15.6631206,
    "longitude": -96.559382,
    "address": "Cam. a Playa Mermejita s/n, 70947 Mazunte, Oax., Mexico",
    "phone": "958 106 0700",
    "website": "http://casamermejita.com/",
    "google_maps_url": "https://maps.google.com/?cid=8692960969257342926",
    "rating": 4.2,
    "review_count": 101,
    "price_level": "N/A",
    "hours": "N/A",
    "open_now": "Unknown",
    "types": "",
    "place_id": "ChIJJTqvBhUouYURzlfruvGZo3g"
  },
  {
    "name": "Zoa Hotel",
    "category": "Hotels & Hostels",
    "latitude": 15.6657921,
    "longitude": -96.5493772,
    "address": "Cerrada Del Museo De La Tortuga S/N, 70946 Mazunte, Oax., Mexico",
    "phone": "958 187 0347",
    "website": "N/A",
    "google_maps_url": "https://maps.google.com/?cid=14784195012160882248",
    "rating": 4.4,
    "review_count": 200,
    "price_level": "N/A",
    "hours": "Monday: Open 24 hours | Tuesday: Open 24 hours | Wednesday: Open 24 hours | Thursday: Open 24 hours | Friday: Open 24 hours | Saturday: Open 24 hours | Sunday: Open 24 hours",
    "open_now": true,
    "types": "",
    "place_id": "ChIJARIkXjcouYURSIbzlQgDLM0"
  },
  {
    "name": "Posada Arigalan",
    "category": "Hotels & Hostels",
    "latitude": 15.6659442,
    "longitude": -96.54890309999999,
    "address": "Cerrada del Museo S/N, 70946 Mazunte, Oax., Mexico",
    "phone": "958 111 3383",
    "website": "http://www.arigalan.com/",
    "google_maps_url": "https://maps.google.com/?cid=16455593899919454622",
    "rating": 4.6,
    "review_count": 108,
    "price_level": "N/A",
    "hours": "N/A",
    "open_now": "Unknown",
    "types": "",
    "place_id": "ChIJ9YjanDkouYURnrHIbHcDXuQ"
  },
  {
    "name": "Casa Sérénité",
    "category": "Hotels & Hostels",
    "latitude": 15.6649956,
    "longitude": -96.55722329999999,
    "address": "Cam. Mermejita, 70947 Mazunte, Oax., Mexico",
    "phone": "19581079990",
    "website": "N/A",
    "google_maps_url": "https://maps.google.com/?cid=17002353914657475116",
    "rating": 5,
    "review_count": 1,
    "price_level": "N/A",
    "hours": "N/A",
    "open_now": "Unknown",
    "types": "",
    "place_id": "ChIJqZfI9BUouYURLIqhlM1-9Os"
  },
  {
    "name": "Hotel El Copal",
    "category": "Hotels & Hostels",
    "latitude": 15.6620785,
    "longitude": -96.55970239999999,
    "address": "Calle del Panteón, Cam. Mermejita s/n, 70946 Mazunte, Oax., Mexico",
    "phone": "55 5616 1144",
    "website": "N/A",
    "google_maps_url": "https://maps.google.com/?cid=12452767444466263220",
    "rating": 4.3,
    "review_count": 272,
    "price_level": "N/A",
    "hours": "Monday: 7:00 AM – 10:30 PM | Tuesday: 7:00 AM – 10:30 PM | Wednesday: 7:00 AM – 10:30 PM | Thursday: 7:00 AM – 10:30 PM | Friday: 7:00 AM – 10:30 PM | Saturday: 7:00 AM – 10:30 PM | Sunday: 7:00 AM – 10:30 PM",
    "open_now": false,
    "types": "",
    "place_id": "ChIJu5hHGhQouYURtOT1XQMe0aw"
  },
  {
    "name": "Casa Corazon Mazunte",
    "category": "Hotels & Hostels",
    "latitude": 15.6654885,
    "longitude": -96.55557259999999,
    "address": "Palma Real S/N, 06760 Mazunte, Oax., Mexico",
    "phone": "983 168 5584",
    "website": "http://www.corazonmazunte.com/",
    "google_maps_url": "https://maps.google.com/?cid=1617579656282055304",
    "rating": 3.9,
    "review_count": 58,
    "price_level": "N/A",
    "hours": "N/A",
    "open_now": "Unknown",
    "types": "",
    "place_id": "ChIJ8fobbT4ouYURiCKXiCDMchY"
  },
  {
    "name": "OceanoMar",
    "category": "Hotels & Hostels",
    "latitude": 15.6637583,
    "longitude": -96.55976869999999,
    "address": "Cam. a Playa Mermejita, 70946 Mazunte, Oax., Mexico",
    "phone": "19585876232",
    "website": "https://www.oceanomar.com/",
    "google_maps_url": "https://maps.google.com/?cid=11079794995737856550",
    "rating": 4.7,
    "review_count": 119,
    "price_level": "N/A",
    "hours": "N/A",
    "open_now": "Unknown",
    "types": "",
    "place_id": "ChIJxVBY-xQouYURJgobadhWw5k"
  },
  {
    "name": "Posada Paloma",
    "category": "Hotels & Hostels",
    "latitude": 15.6664341,
    "longitude": -96.5422239,
    "address": "Calle Principal s/n, 70940 San Agustinillo, Oax., Mexico",
    "phone": "(514) 237-9708",
    "website": "http://posadapaloma.tuhotel.com.mx/",
    "google_maps_url": "https://maps.google.com/?cid=14833324201582381874",
    "rating": 4.6,
    "review_count": 91,
    "price_level": "N/A",
    "hours": "N/A",
    "open_now": "Unknown",
    "types": "",
    "place_id": "ChIJoZTM2DYouYURMsuFYcWN2s0"
  },
  {
    "name": "Las Cabanas Magicas",
    "category": "Hotels & Hostels",
    "latitude": 15.6665892,
    "longitude": -96.5438423,
    "address": "Calle principal, San Agustinillo, 70947 San Agustinillo, Oax., Mexico",
    "phone": "958 115 3775",
    "website": "http://booking.com/hotel/mx/las-cabanas-magicas.html",
    "google_maps_url": "https://maps.google.com/?cid=14412023068443241146",
    "rating": 4.5,
    "review_count": 15,
    "price_level": "N/A",
    "hours": "N/A",
    "open_now": "Unknown",
    "types": "",
    "place_id": "ChIJRayZR0spuYURumpLYZ_KAcg"
  },
  {
    "name": "Cabañas Ventanilla",
    "category": "Hotels & Hostels",
    "latitude": 15.6696169,
    "longitude": -96.5762206,
    "address": "Supermanzana Ventanilla, 70947 Oax., Mexico",
    "phone": "958 220 5797",
    "website": "N/A",
    "google_maps_url": "https://maps.google.com/?cid=44432582156611475",
    "rating": 4.6,
    "review_count": 80,
    "price_level": "N/A",
    "hours": "Monday: 8:00 AM – 7:00 PM | Tuesday: 8:00 AM – 7:00 PM | Wednesday: 8:00 AM – 7:00 PM | Thursday: 8:00 AM – 7:00 PM | Friday: 8:00 AM – 7:00 PM | Saturday: 8:00 AM – 7:00 PM | Sunday: 8:00 AM – 7:00 PM",
    "open_now": false,
    "types": "",
    "place_id": "ChIJF0Aq_-wpuYURk-_lszLbnQA"
  },
  {
    "name": "Posada Nautica",
    "category": "Hotels & Hostels",
    "latitude": 15.6669529,
    "longitude": -96.552281,
    "address": "Privada las Tortuguitas S/N, 70947 Mazunte, Oax., Mexico",
    "phone": "12291111129",
    "website": "N/A",
    "google_maps_url": "https://maps.google.com/?cid=17408167548846320100",
    "rating": 4.5,
    "review_count": 43,
    "price_level": "N/A",
    "hours": "N/A",
    "open_now": "Unknown",
    "types": "",
    "place_id": "ChIJt_XzrD4ouYUR5Kl3Oyc8lvE"
  },
  {
    "name": "Posada Arrecife",
    "category": "Hotels & Hostels",
    "latitude": 15.6681059,
    "longitude": -96.5544082,
    "address": "cam. a la Aguaje s/n a un costado de la Av. principal al pasar el puente, 70947 Mazunte, Oax., Mexico",
    "phone": "998 407 9745",
    "website": "N/A",
    "google_maps_url": "https://maps.google.com/?cid=6007575874830683232",
    "rating": 4,
    "review_count": 2,
    "price_level": "N/A",
    "hours": "N/A",
    "open_now": "Unknown",
    "types": "",
    "place_id": "ChIJ5ya3NTwouYURYEx9vG0yX1M"
  },
  {
    "name": "Posada del Arquitecto",
    "category": "Hotels & Hostels",
    "latitude": 15.664174,
    "longitude": -96.5555945,
    "address": "Andador Rinconcito Colonia Rinconcito, Rinconcito, 70946 Mazunte, Oax., Mexico",
    "phone": "958 113 9744",
    "website": "http://www.posadadelarquitecto.com/",
    "google_maps_url": "https://maps.google.com/?cid=5817151471655965522",
    "rating": 4.2,
    "review_count": 1096,
    "price_level": "N/A",
    "hours": "N/A",
    "open_now": "Unknown",
    "types": "",
    "place_id": "ChIJPVv8SD4ouYURUtOxYHGsulA"
  },
  {
    "name": "OYO Cabañas Abril, Mazunte",
    "category": "Hotels & Hostels",
    "latitude": 15.668013,
    "longitude": -96.5565963,
    "address": "Avenida Principal, Ocotillo S/N, 70902 Mazunte, Oax., Mexico",
    "phone": "222 690 3543",
    "website": "https://www.oyorooms.com/MX/99918/?utm_source=GMB_MX&utm_medium=Organic&utm_campaign=MX_SANE001&latitude=15.6680205155555&longitude=-96.5566017664968&locale=es",
    "google_maps_url": "https://maps.google.com/?cid=2450556521147318065",
    "rating": 3.5,
    "review_count": 374,
    "price_level": "N/A",
    "hours": "N/A",
    "open_now": "Unknown",
    "types": "",
    "place_id": "ChIJIxe5jD0ouYURMb8AISwgAiI"
  },
  {
    "name": "Posada Olivo",
    "category": "Hotels & Hostels",
    "latitude": 15.6676071,
    "longitude": -96.5480503,
    "address": "Barrio el Organo sn a 50m desde la carretera federal n.175, 70947 Mazunte, Oax., Mexico",
    "phone": "958 117 3796",
    "website": "N/A",
    "google_maps_url": "https://maps.google.com/?cid=17438625894079233606",
    "rating": 5,
    "review_count": 67,
    "price_level": "N/A",
    "hours": "N/A",
    "open_now": "Unknown",
    "types": "",
    "place_id": "ChIJB-lYPDoouYURRn6FW9txAvI"
  },
  {
    "name": "El rinconcito de Mazunte",
    "category": "Hotels",
    "latitude": 15.6652806,
    "longitude": -96.5560581,
    "address": "Rinconcito s/n, 70947 Mazunte, Oax., Mexico",
    "phone": "958 107 6347",
    "website": "https://www.hotelrinconcitodemazunte.com/",
    "google_maps_url": "https://maps.google.com/?cid=10270356839110662737",
    "rating": 4.3,
    "review_count": 517,
    "price_level": "$$",
    "hours": "Monday: 8:00 AM – 11:00 PM | Tuesday: 8:00 AM – 11:00 PM | Wednesday: 8:00 AM – 11:00 PM | Thursday: 8:00 AM – 11:00 PM | Friday: 8:00 AM – 11:00 PM | Saturday: 8:00 AM – 11:00 PM | Sunday: 8:00 AM – 11:00 PM",
    "open_now": false,
    "types": "",
    "place_id": "ChIJK2IMvSopuYURUdqxZyGjh44"
  },
  {
    "name": "Cabins Balamjuyuc",
    "category": "Hotels",
    "latitude": 15.6638031,
    "longitude": -96.55700279999999,
    "address": "cerro del panteon, Cam. a Punta Cometa s/n, 70946 Mazunte, Oax., Mexico",
    "phone": "958 583 7667",
    "website": "https://www.balamjuyucmazunte.com/",
    "google_maps_url": "https://maps.google.com/?cid=17314473496507263600",
    "rating": 4,
    "review_count": 274,
    "price_level": "N/A",
    "hours": "Monday: 1:00 AM – 12:00 AM | Tuesday: 1:00 AM – 12:00 AM | Wednesday: 1:00 AM – 12:00 AM | Thursday: 1:00 AM – 12:00 AM | Friday: 1:00 AM – 12:00 AM | Saturday: 1:00 AM – 12:00 AM | Sunday: 1:00 AM – 12:00 AM",
    "open_now": true,
    "types": "",
    "place_id": "ChIJ-ytzCUAouYURcCo7uOhdSfA"
  },
  {
    "name": "Hotel Cristal Mazunte",
    "category": "Hotels",
    "latitude": 15.6700263,
    "longitude": -96.5514249,
    "address": "AV ARROYO 24 F JAVIER MINA A L MATEOS, 70949 Mazunte, Oax., Mexico",
    "phone": "958 187 8587",
    "website": "https://www.hotelcasacristal.com/",
    "google_maps_url": "https://maps.google.com/?cid=15336117753953093183",
    "rating": 5,
    "review_count": 12,
    "price_level": "N/A",
    "hours": "N/A",
    "open_now": "Unknown",
    "types": "",
    "place_id": "ChIJJ4VDZwApuYURP4bvzdfV1NQ"
  },
  {
    "name": "La Sábila Mazunte",
    "category": "Hotels",
    "latitude": 15.6646557,
    "longitude": -96.5563414,
    "address": "Calle Playa Rinconcito s/n entrada por El Pescador, 70947 Mazunte, Oax., Mexico",
    "phone": "958 119 1547",
    "website": "http://www.lasabilamazunte.com/",
    "google_maps_url": "https://maps.google.com/?cid=13809920071946928993",
    "rating": 4.5,
    "review_count": 73,
    "price_level": "N/A",
    "hours": "N/A",
    "open_now": "Unknown",
    "types": "",
    "place_id": "ChIJ8zHFUJ0puYURYQPvKCOxpr8"
  },
  {
    "name": "Bajo Las Estrellas",
    "category": "Hotels",
    "latitude": 15.6668924,
    "longitude": -96.5501626,
    "address": "Avenida Principal, 70947 Mazunte, Oax., Mexico",
    "phone": "958 116 1686",
    "website": "N/A",
    "google_maps_url": "https://maps.google.com/?cid=9216468830288160264",
    "rating": 4.2,
    "review_count": 107,
    "price_level": "N/A",
    "hours": "N/A",
    "open_now": "Unknown",
    "types": "",
    "place_id": "ChIJJ4n6cjwpuYURCCbJ-JF5538"
  },
  {
    "name": "Casa Yoo Bigu Mazunte",
    "category": "Hotels",
    "latitude": 15.6675984,
    "longitude": -96.5506297,
    "address": "C. Tamarindos S/N, 70947 Mazunte, Oax., Mexico",
    "phone": "958 109 8308",
    "website": "https://hotels.cloudbeds.com/reservation/gKdZ4n",
    "google_maps_url": "https://maps.google.com/?cid=16567515933744089381",
    "rating": 4.2,
    "review_count": 113,
    "price_level": "N/A",
    "hours": "N/A",
    "open_now": "Unknown",
    "types": "",
    "place_id": "ChIJa8TdQ5ApuYURJclwmfaj6-U"
  },
  {
    "name": "La Playa Hostel",
    "category": "Hotels",
    "latitude": 15.6650537,
    "longitude": -96.5549411,
    "address": "70947 Mazunte, Oax., Mexico",
    "phone": "958 131 5533",
    "website": "N/A",
    "google_maps_url": "https://maps.google.com/?cid=2161162644888581895",
    "rating": 4.2,
    "review_count": 57,
    "price_level": "N/A",
    "hours": "N/A",
    "open_now": "Unknown",
    "types": "",
    "place_id": "ChIJs0O9VvUpuYURB3dtpvn9_R0"
  },
  {
    "name": "Casa H Rinconcito Mazunte",
    "category": "Hotels",
    "latitude": 15.6662088,
    "longitude": -96.5558353,
    "address": "Rinconcito SN Mazunte, 70947 Oaxaca, Oax., Mexico",
    "phone": "958 106 4481",
    "website": "https://casahrinconcitomazunte.com/",
    "google_maps_url": "https://maps.google.com/?cid=3667599010964529160",
    "rating": 4.2,
    "review_count": 17,
    "price_level": "N/A",
    "hours": "N/A",
    "open_now": "Unknown",
    "types": "",
    "place_id": "ChIJMUQ_0IApuYURCGAdY97t5TI"
  },
  {
    "name": "Hotel Pochote",
    "category": "Hotels",
    "latitude": 15.6676937,
    "longitude": -96.5546272,
    "address": "AVENIDA PRINCIPAL EL MAZUNTE, 70946 Santa María Tonameca, Oax., Mexico",
    "phone": "958 106 0700",
    "website": "http://www.hotelpochote.com/",
    "google_maps_url": "https://maps.google.com/?cid=15173526229092227654",
    "rating": 4,
    "review_count": 124,
    "price_level": "N/A",
    "hours": "N/A",
    "open_now": "Unknown",
    "types": "",
    "place_id": "ChIJ4cfhIBYouYURRloda7Yxk9I"
  },
  {
    "name": "Posada luna y sol",
    "category": "Hotels",
    "latitude": 15.6650552,
    "longitude": -96.5561371,
    "address": "Rinconcito, 70947 Mazunte, Oax., Mexico",
    "phone": "N/A",
    "website": "N/A",
    "google_maps_url": "https://maps.google.com/?cid=16370635379595154640",
    "rating": 4.2,
    "review_count": 46,
    "price_level": "N/A",
    "hours": "N/A",
    "open_now": "Unknown",
    "types": "",
    "place_id": "ChIJZZNDFj4ouYUR0BQ2dCQuMOM"
  },
  {
    "name": "Posada del Centro Mazunte Rinconcito",
    "category": "Hotels",
    "latitude": 15.6675648,
    "longitude": -96.55589700000002,
    "address": "00810 callejo del, duende, 70947 Mazunte, Oax., Mexico",
    "phone": "55 2175 9028",
    "website": "N/A",
    "google_maps_url": "https://maps.google.com/?cid=7789250818077056234",
    "rating": 4,
    "review_count": 7,
    "price_level": "N/A",
    "hours": "N/A",
    "open_now": "Unknown",
    "types": "",
    "place_id": "ChIJj4rx2ycpuYUR6lznjVn6GGw"
  },
  {
    "name": "YAM HOTEL",
    "category": "Hotels",
    "latitude": 15.6680687,
    "longitude": -96.5550722,
    "address": "Las Flores, 70947 Mazunte, Oax., Mexico",
    "phone": "958 116 6138",
    "website": "N/A",
    "google_maps_url": "https://maps.google.com/?cid=1725392177986732942",
    "rating": 4.8,
    "review_count": 30,
    "price_level": "N/A",
    "hours": "N/A",
    "open_now": "Unknown",
    "types": "",
    "place_id": "ChIJ-W3acAApuYURjgMjWwvT8Rc"
  },
  {
    "name": "Casa NAU Mazunte",
    "category": "Hotels",
    "latitude": 15.6656369,
    "longitude": -96.5549995,
    "address": "Barrita esquina palma real Mazunte, 70947 Tonameca, Oax., Mexico",
    "phone": "958 143 7518",
    "website": "https://www.casanaumazunte.com/",
    "google_maps_url": "https://maps.google.com/?cid=6428293229223518731",
    "rating": 4.8,
    "review_count": 33,
    "price_level": "N/A",
    "hours": "N/A",
    "open_now": "Unknown",
    "types": "",
    "place_id": "ChIJh5SJXkcpuYURC6LqJ6LiNVk"
  },
  {
    "name": "H20 Hotel Container",
    "category": "Hotels",
    "latitude": 15.6678276,
    "longitude": -96.539569,
    "address": "Carretera San Antonio - puerto ángel, calle principal, 70947 San Agustinillo, Oax., Mexico",
    "phone": "958 107 3202",
    "website": "http://www.h20hotelcontainer.com/",
    "google_maps_url": "https://maps.google.com/?cid=3616561171142205830",
    "rating": 4.9,
    "review_count": 31,
    "price_level": "N/A",
    "hours": "N/A",
    "open_now": "Unknown",
    "types": "",
    "place_id": "ChIJyyVrDxYpuYURhuFmSjmbMDI"
  },
  {
    "name": "Hotel Ave Fenix",
    "category": "Hotels",
    "latitude": 15.6703138,
    "longitude": -96.55657939999999,
    "address": "C. Caoba, 70949 Mazunte, Oax., Mexico",
    "phone": "771 318 1847",
    "website": "N/A",
    "google_maps_url": "https://maps.google.com/?cid=12547362202143663837",
    "rating": 4.7,
    "review_count": 11,
    "price_level": "N/A",
    "hours": "N/A",
    "open_now": "Unknown",
    "types": "",
    "place_id": "ChIJezRePAApuYUR3abvrnEvIa4"
  },
  {
    "name": "Casa Lú Mazunte Hotel Boutique - Adults Only",
    "category": "Hotels",
    "latitude": 15.6655969,
    "longitude": -96.552864,
    "address": "Golfina 1, 70949 Mazunte, Oax., Mexico",
    "phone": "958 229 6814",
    "website": "N/A",
    "google_maps_url": "https://maps.google.com/?cid=11086225514174763851",
    "rating": 4.4,
    "review_count": 96,
    "price_level": "N/A",
    "hours": "Monday: Open 24 hours | Tuesday: Open 24 hours | Wednesday: Open 24 hours | Thursday: Open 24 hours | Friday: Open 24 hours | Saturday: Open 24 hours | Sunday: Open 24 hours",
    "open_now": true,
    "types": "",
    "place_id": "ChIJAyN14-opuYURS1NCKF4v2pk"
  },
  {
    "name": "Casa de Kai Mazunte",
    "category": "Hotels",
    "latitude": 15.6670412,
    "longitude": -96.55566499999999,
    "address": "Frente a Lavandería Vicky, Rinconcito SN, 70949 Mazunte, Oax., Mexico",
    "phone": "55 7919 3282",
    "website": "https://airbnb.com/h/casadekaimazunte2",
    "google_maps_url": "https://maps.google.com/?cid=5702477251822321174",
    "rating": 4.9,
    "review_count": 12,
    "price_level": "N/A",
    "hours": "N/A",
    "open_now": "Unknown",
    "types": "",
    "place_id": "ChIJqdcJV_opuYURFn6d9thEI08"
  },
  {
    "name": "Cabañas La Escondida",
    "category": "Hotels",
    "latitude": 15.6659614,
    "longitude": -96.5557793,
    "address": "Calle rinconcito S/N frente al, Camino Al Panteón, 70947 Mazunte, Oax., Mexico",
    "phone": "951 509 9100",
    "website": "https://cabañaslaescondida.com/",
    "google_maps_url": "https://maps.google.com/?cid=16802381087699235186",
    "rating": 4.8,
    "review_count": 75,
    "price_level": "N/A",
    "hours": "Monday: 7:00 AM – 10:00 PM | Tuesday: 7:00 AM – 10:00 PM | Wednesday: 7:00 AM – 10:00 PM | Thursday: 7:00 AM – 10:00 PM | Friday: 7:00 AM – 10:00 PM | Saturday: 7:00 AM – 10:00 PM | Sunday: 7:00 AM – 10:00 PM",
    "open_now": false,
    "types": "",
    "place_id": "ChIJeaGkDT4ouYURcvENkZMMLuk"
  },
  {
    "name": "Pakal Hostal",
    "category": "Hostels",
    "latitude": 15.6755436,
    "longitude": -96.5689173,
    "address": "Camino playa ventanilla s/n, El Zapotal, 70946 Oax., Mexico",
    "phone": "954 132 3223",
    "website": "N/A",
    "google_maps_url": "https://maps.google.com/?cid=16666070372241858638",
    "rating": 4.5,
    "review_count": 50,
    "price_level": "N/A",
    "hours": "Monday: Closed | Tuesday: Open 24 hours | Wednesday: Open 24 hours | Thursday: Open 24 hours | Friday: Open 24 hours | Saturday: Open 24 hours | Sunday: Open 24 hours",
    "open_now": false,
    "types": "",
    "place_id": "ChIJ90oG6AQouYURTmAj87PGSec"
  },
  {
    "name": "Hostal Alma Turquesa",
    "category": "Hostels",
    "latitude": 15.6655434,
    "longitude": -96.5549964,
    "address": "La Barrita esquina, Palma Real, 70947 Mazunte, Oax., Mexico",
    "phone": "55 3500 3534",
    "website": "N/A",
    "google_maps_url": "https://maps.google.com/?cid=10908601364705424973",
    "rating": 4.8,
    "review_count": 78,
    "price_level": "N/A",
    "hours": "Monday: Open 24 hours | Tuesday: Open 24 hours | Wednesday: Open 24 hours | Thursday: Open 24 hours | Friday: Open 24 hours | Saturday: Open 24 hours | Sunday: Open 24 hours",
    "open_now": true,
    "types": "",
    "place_id": "ChIJc2aKZT4ouYURTbabGyUjY5c"
  },
  {
    "name": "Hostal Casa del Angel",
    "category": "Hostels",
    "latitude": 15.6696338,
    "longitude": -96.5576461,
    "address": "Calle Principal Número 99, 70947 Mazunte, Oax., Mexico",
    "phone": "55 3045 4050",
    "website": "https://hostalcasadelangel.com.mx/",
    "google_maps_url": "https://maps.google.com/?cid=12468753301301622047",
    "rating": 4.1,
    "review_count": 92,
    "price_level": "N/A",
    "hours": "N/A",
    "open_now": "Unknown",
    "types": "",
    "place_id": "ChIJlW2opjYpuYURH_UPtBDpCa0"
  },
  {
    "name": "Punta Sur - Cabañas",
    "category": "Hostels",
    "latitude": 15.6617175,
    "longitude": -96.5600917,
    "address": "Cam. a Playa Mermejita, Punta Sur, 70947 Mazunte, Oax., Mexico",
    "phone": "958 219 3216",
    "website": "N/A",
    "google_maps_url": "https://maps.google.com/?cid=18427087768985573672",
    "rating": 5,
    "review_count": 3,
    "price_level": "N/A",
    "hours": "N/A",
    "open_now": "Unknown",
    "types": "",
    "place_id": "ChIJj7QJQEMpuYURKJlU67Equv8"
  },
  {
    "name": "Hostal Mezcalito",
    "category": "Hostels",
    "latitude": 15.6704976,
    "longitude": -96.573236,
    "address": "70947 Oaxaca, Mexico",
    "phone": "N/A",
    "website": "N/A",
    "google_maps_url": "https://maps.google.com/?cid=14033480165480691008",
    "rating": 4.3,
    "review_count": 12,
    "price_level": "N/A",
    "hours": "N/A",
    "open_now": "Unknown",
    "types": "",
    "place_id": "ChIJszIiGOYpuYURQHX3odvvwMI"
  },
  {
    "name": "Posada el Secreto",
    "category": "Hostels",
    "latitude": 15.6676336,
    "longitude": -96.554721,
    "address": "México 175, 70947 Mazunte, Oax., Mexico",
    "phone": "777 712 2418",
    "website": "N/A",
    "google_maps_url": "https://maps.google.com/?cid=14801664477979279126",
    "rating": 4.3,
    "review_count": 27,
    "price_level": "N/A",
    "hours": "N/A",
    "open_now": "Unknown",
    "types": "",
    "place_id": "ChIJO6jnPXcpuYURFv94jmsTas0"
  },
  {
    "name": "Centro Mexicano de la Tortuga",
    "category": "Tourist Attractions",
    "latitude": 15.6665709,
    "longitude": -96.5519087,
    "address": "Av. Principal S/N, Centro, 70947 Mazunte, Oax., Mexico",
    "phone": "958 100 2827",
    "website": "https://tortugasmazunte.org/",
    "google_maps_url": "https://maps.google.com/?cid=8604467778366607269",
    "rating": 4.4,
    "review_count": 3700,
    "price_level": "N/A",
    "hours": "Monday: Closed | Tuesday: Closed | Wednesday: 10:00 AM – 4:30 PM | Thursday: 10:00 AM – 4:30 PM | Friday: 10:00 AM – 4:30 PM | Saturday: 10:00 AM – 4:30 PM | Sunday: 10:00 AM – 2:00 PM",
    "open_now": false,
    "types": "",
    "place_id": "ChIJ3SuPg84puYURpQ_WIts1aXc"
  },
  {
    "name": "TOURS MAZUNTE OCÉANO MAGICO",
    "category": "Tourist Attractions",
    "latitude": 15.6649803,
    "longitude": -96.5545015,
    "address": "Mazunte magico, Carey, 70946 Pochutla, Oax., Mexico",
    "phone": "958 587 8731",
    "website": "https://www.instagram.com/tours_mazunte_oceano_magico?igsh=ZzFmdjRkaDBibWJz",
    "google_maps_url": "https://maps.google.com/?cid=8657826276467434121",
    "rating": 5,
    "review_count": 880,
    "price_level": "N/A",
    "hours": "Monday: Open 24 hours | Tuesday: Open 24 hours | Wednesday: Open 24 hours | Thursday: Open 24 hours | Friday: Open 24 hours | Saturday: Open 24 hours | Sunday: Open 24 hours",
    "open_now": true,
    "types": "",
    "place_id": "ChIJsTIbJ_wpuYURiWLilyDHJng"
  },
  {
    "name": "Playa Mazunte",
    "category": "Tourist Attractions",
    "latitude": 15.6642976,
    "longitude": -96.5546359,
    "address": "México 175 26, 70947 Mazunte, Oax., Mexico",
    "phone": "N/A",
    "website": "N/A",
    "google_maps_url": "https://maps.google.com/?cid=15677470309350457127",
    "rating": 4.7,
    "review_count": 7116,
    "price_level": "N/A",
    "hours": "Monday: 9:00 AM – 9:00 PM | Tuesday: 9:00 AM – 9:00 PM | Wednesday: 9:00 AM – 9:00 PM | Thursday: 9:00 AM – 9:00 PM | Friday: 9:00 AM – 9:00 PM | Saturday: 9:00 AM – 9:00 PM | Sunday: 9:00 AM – 9:00 PM",
    "open_now": false,
    "types": "",
    "place_id": "ChIJSw4pvz4ouYURJz-R_S6Qkdk"
  },
  {
    "name": "Scooter for rent",
    "category": "Tourist Attractions",
    "latitude": 15.6660706,
    "longitude": -96.5535275,
    "address": "rumbo a zipolite, Principal Supermanzana salida, 70944 San Agustinillo, Oax., Mexico",
    "phone": "958 116 2460",
    "website": "N/A",
    "google_maps_url": "https://maps.google.com/?cid=4298035516399772806",
    "rating": 4.8,
    "review_count": 25,
    "price_level": "N/A",
    "hours": "Monday: 8:00 AM – 6:00 PM | Tuesday: 8:00 AM – 6:00 PM | Wednesday: 8:00 AM – 6:00 PM | Thursday: 8:00 AM – 6:00 PM | Friday: 8:00 AM – 6:00 PM | Saturday: 8:00 AM – 6:00 PM | Sunday: 8:00 AM – 6:00 PM",
    "open_now": false,
    "types": "",
    "place_id": "ChIJNebHmjspuYURhmQFu4ewpTs"
  },
  {
    "name": "Tours embarcación Mazunte 2002",
    "category": "Tourist Attractions",
    "latitude": 15.6639263,
    "longitude": -96.55565209999999,
    "address": "70947 Mazunte, Oax., Mexico",
    "phone": "958 138 2956",
    "website": "N/A",
    "google_maps_url": "https://maps.google.com/?cid=9760230092868985898",
    "rating": 5,
    "review_count": 1,
    "price_level": "N/A",
    "hours": "Monday: Open 24 hours | Tuesday: Open 24 hours | Wednesday: Open 24 hours | Thursday: Open 24 hours | Friday: Open 24 hours | Saturday: Open 24 hours | Sunday: Open 24 hours",
    "open_now": true,
    "types": "",
    "place_id": "ChIJAaG6JwApuYURKqSIu45Nc4c"
  },
  {
    "name": "YINO TOURS MAZUNTE",
    "category": "Tourist Attractions",
    "latitude": 15.6638651,
    "longitude": -96.55569919999999,
    "address": "Mazunte, 70947 Pochutla, Oax., Mexico",
    "phone": "56 3577 0828",
    "website": "N/A",
    "google_maps_url": "https://maps.google.com/?cid=14714126283532728804",
    "rating": 5,
    "review_count": 127,
    "price_level": "N/A",
    "hours": "Monday: Open 24 hours | Tuesday: Open 24 hours | Wednesday: Open 24 hours | Thursday: Open 24 hours | Friday: Open 24 hours | Saturday: Open 24 hours | Sunday: Open 24 hours",
    "open_now": true,
    "types": "",
    "place_id": "ChIJyV_riT8puYUR5Pk0ZuUTM8w"
  },
  {
    "name": "Secret 5G Tower",
    "category": "Tourist Attractions",
    "latitude": 15.6638449,
    "longitude": -96.5557094,
    "address": "70947 Mazunte, Oax., Mexico",
    "phone": "N/A",
    "website": "N/A",
    "google_maps_url": "https://maps.google.com/?cid=16677705519186760950",
    "rating": "N/A",
    "review_count": "N/A",
    "price_level": "N/A",
    "hours": "N/A",
    "open_now": "Unknown",
    "types": "",
    "place_id": "ChIJN5f3WQApuYUR9tSys84cc-c"
  },
  {
    "name": "Maui experiences",
    "category": "Tourist Attractions",
    "latitude": 15.6659314,
    "longitude": -96.5559016,
    "address": "Rinconcito, 70947 Mazunte, Oax., Mexico",
    "phone": "958 136 0089",
    "website": "N/A",
    "google_maps_url": "https://maps.google.com/?cid=5900476854721650256",
    "rating": 2,
    "review_count": 1,
    "price_level": "N/A",
    "hours": "N/A",
    "open_now": "Unknown",
    "types": "",
    "place_id": "ChIJAzXIzkIpuYURUB4Z82-04lE"
  },
  {
    "name": "Letras Mazunte",
    "category": "Tourist Attractions",
    "latitude": 15.6672559,
    "longitude": -96.55367799999999,
    "address": "México 175 26, 70947 Mazunte, Oax., Mexico",
    "phone": "N/A",
    "website": "N/A",
    "google_maps_url": "https://maps.google.com/?cid=3934642662461341248",
    "rating": 4.5,
    "review_count": 30,
    "price_level": "N/A",
    "hours": "N/A",
    "open_now": "Unknown",
    "types": "",
    "place_id": "ChIJ4RwxgfEpuYURQP4apqeomjY"
  },
  {
    "name": "Playa Schiavon",
    "category": "Tourist Attractions",
    "latitude": 15.6625743,
    "longitude": -96.5561906,
    "address": "MC7V+2G, 70947 Mazunte, Oax., Mexico",
    "phone": "N/A",
    "website": "N/A",
    "google_maps_url": "https://maps.google.com/?cid=1620928674985475628",
    "rating": "N/A",
    "review_count": "N/A",
    "price_level": "N/A",
    "hours": "N/A",
    "open_now": "Unknown",
    "types": "",
    "place_id": "ChIJ4WO0VAApuYURLP7AtgqyfhY"
  },
  {
    "name": "Playa del Lalo",
    "category": "Tourist Attractions",
    "latitude": 15.6648331,
    "longitude": -96.5502491,
    "address": "Cerrada del Museo S/N-70946, 70947 Mazunte, Oax., Mexico",
    "phone": "N/A",
    "website": "N/A",
    "google_maps_url": "https://maps.google.com/?cid=9611346140849789152",
    "rating": 4.7,
    "review_count": 6,
    "price_level": "N/A",
    "hours": "N/A",
    "open_now": "Unknown",
    "types": "",
    "place_id": "ChIJdfOQGQApuYUR4FisWmRcYoU"
  },
  {
    "name": "Mazunte",
    "category": "Tourist Attractions",
    "latitude": 15.6612081,
    "longitude": -96.55623179999999,
    "address": "MC6V+FG, 70947 Mazunte, Oax., Mexico",
    "phone": "N/A",
    "website": "N/A",
    "google_maps_url": "https://maps.google.com/?cid=16080001387550735877",
    "rating": 4.8,
    "review_count": 377,
    "price_level": "N/A",
    "hours": "N/A",
    "open_now": "Unknown",
    "types": "",
    "place_id": "ChIJkS4gx3cpuYURBf6_BBGkJ98"
  },
  {
    "name": "Bifurcación de camino",
    "category": "Tourist Attractions",
    "latitude": 15.6625556,
    "longitude": -96.5579068,
    "address": "MC7R+2R, 70947 Mazunte, Oax., Mexico",
    "phone": "N/A",
    "website": "N/A",
    "google_maps_url": "https://maps.google.com/?cid=5892223584021274315",
    "rating": 4.1,
    "review_count": 8,
    "price_level": "N/A",
    "hours": "N/A",
    "open_now": "Unknown",
    "types": "",
    "place_id": "ChIJoX1zZAApuYURy17EniFixVE"
  },
  {
    "name": "Playa Elefante",
    "category": "Tourist Attractions",
    "latitude": 15.6643825,
    "longitude": -96.5473067,
    "address": "Mexico",
    "phone": "N/A",
    "website": "N/A",
    "google_maps_url": "https://maps.google.com/?cid=11958225253062179770",
    "rating": 4.8,
    "review_count": 85,
    "price_level": "N/A",
    "hours": "N/A",
    "open_now": "Unknown",
    "types": "",
    "place_id": "ChIJY62uy7spuYURunvgoIIm9KU"
  },
  {
    "name": "Playa Los peces",
    "category": "Tourist Attractions",
    "latitude": 15.6611823,
    "longitude": -96.5595953,
    "address": "MC6R+F5, Mazunte, Oax., Mexico",
    "phone": "N/A",
    "website": "N/A",
    "google_maps_url": "https://maps.google.com/?cid=17196179631998711913",
    "rating": "N/A",
    "review_count": "N/A",
    "price_level": "N/A",
    "hours": "Monday: Open 24 hours | Tuesday: Open 24 hours | Wednesday: Open 24 hours | Thursday: Open 24 hours | Friday: Open 24 hours | Saturday: Open 24 hours | Sunday: Open 24 hours",
    "open_now": true,
    "types": "",
    "place_id": "ChIJtUBmGL0puYURaTgXG0Qape4"
  },
  {
    "name": "TTP Secret Naked Cove",
    "category": "Tourist Attractions",
    "latitude": 15.6612953,
    "longitude": -96.55978069999999,
    "address": "MC6R+G3, Mazunte, Oax., Mexico",
    "phone": "N/A",
    "website": "N/A",
    "google_maps_url": "https://maps.google.com/?cid=13537966545737592238",
    "rating": 5,
    "review_count": 1,
    "price_level": "N/A",
    "hours": "Monday: Open 24 hours | Tuesday: Open 24 hours | Wednesday: Open 24 hours | Thursday: Open 24 hours | Friday: Open 24 hours | Saturday: Open 24 hours | Sunday: Open 24 hours",
    "open_now": true,
    "types": "",
    "place_id": "ChIJs1dWZcopuYURrq3Pm9iE4Ls"
  },
  {
    "name": "TTP Sunset Cove",
    "category": "Tourist Attractions",
    "latitude": 15.661295,
    "longitude": -96.559781,
    "address": "MC6R+G3, Mazunte, Oax., Mexico",
    "phone": "N/A",
    "website": "N/A",
    "google_maps_url": "https://maps.google.com/?cid=12874277228458100246",
    "rating": 2.3,
    "review_count": 3,
    "price_level": "N/A",
    "hours": "Monday: Open 24 hours | Tuesday: Open 24 hours | Wednesday: Open 24 hours | Thursday: Open 24 hours | Friday: Open 24 hours | Saturday: Open 24 hours | Sunday: Open 24 hours",
    "open_now": true,
    "types": "",
    "place_id": "ChIJu2P1PDMpuYURFkYlru2eqrI"
  },
  {
    "name": "Punta del pescador",
    "category": "Tourist Attractions",
    "latitude": 15.6605076,
    "longitude": -96.5592949,
    "address": "Santa María Tonameca, Oaxaca, Mexico",
    "phone": "N/A",
    "website": "N/A",
    "google_maps_url": "https://maps.google.com/?cid=17335325467304998360",
    "rating": 4.9,
    "review_count": 15,
    "price_level": "N/A",
    "hours": "N/A",
    "open_now": "Unknown",
    "types": "",
    "place_id": "ChIJpV_wPW0puYUR2DV_gKpyk_A"
  },
  {
    "name": "Punta Cometa",
    "category": "Tourist Attractions",
    "latitude": 15.658116,
    "longitude": -96.5561723,
    "address": "Cam. a Playa Mermejita, 70947 Mazunte, Oax., Mexico",
    "phone": "N/A",
    "website": "N/A",
    "google_maps_url": "https://maps.google.com/?cid=8536800126312990553",
    "rating": 4.9,
    "review_count": 4316,
    "price_level": "N/A",
    "hours": "Monday: Open 24 hours | Tuesday: Open 24 hours | Wednesday: Open 24 hours | Thursday: Open 24 hours | Friday: Open 24 hours | Saturday: Open 24 hours | Sunday: Open 24 hours",
    "open_now": true,
    "types": "",
    "place_id": "ChIJHSKCLEAouYURWUdlJ3zOeHY"
  },
  {
    "name": "Xipiteca",
    "category": "Museums",
    "latitude": 15.6632736,
    "longitude": -96.5601823,
    "address": "MC7Q+8W, 70947 Mazunte, Oax., Mexico",
    "phone": "N/A",
    "website": "N/A",
    "google_maps_url": "https://maps.google.com/?cid=4153049865058544815",
    "rating": 4.8,
    "review_count": 12,
    "price_level": "N/A",
    "hours": "N/A",
    "open_now": "Unknown",
    "types": "",
    "place_id": "ChIJcX_6FAApuYURr2xMNdmYojk"
  },
  {
    "name": "Casa hashi",
    "category": "Museums",
    "latitude": 15.6693788,
    "longitude": -96.53094999999999,
    "address": "Calle montaña, C. La Blanca Aragon SN-A, 70946 San Antonio, Oax., Mexico",
    "phone": "N/A",
    "website": "N/A",
    "google_maps_url": "https://maps.google.com/?cid=500127857173948973",
    "rating": "N/A",
    "review_count": "N/A",
    "price_level": "N/A",
    "hours": "N/A",
    "open_now": "Unknown",
    "types": "",
    "place_id": "ChIJe41EbQApuYURLWoh5aLP8AY"
  },
  {
    "name": "Playa La Ventanilla",
    "category": "Beaches",
    "latitude": 15.6691438,
    "longitude": -96.5750277,
    "address": "Playa La Ventanilla, 70947 Santa María Tonameca, Oax., Mexico",
    "phone": "N/A",
    "website": "N/A",
    "google_maps_url": "https://maps.google.com/?cid=14293846568665715366",
    "rating": 4.8,
    "review_count": 266,
    "price_level": "N/A",
    "hours": "N/A",
    "open_now": "Unknown",
    "types": "",
    "place_id": "ChIJLUep_AgouYURppJB37jxXcY"
  },
  {
    "name": "Playa Mermejita",
    "category": "Beaches",
    "latitude": 15.6634594,
    "longitude": -96.56449339999999,
    "address": "Playa Mermejita, Oaxaca, Mexico",
    "phone": "N/A",
    "website": "N/A",
    "google_maps_url": "https://maps.google.com/?cid=7699740554541691599",
    "rating": 4.7,
    "review_count": 422,
    "price_level": "N/A",
    "hours": "N/A",
    "open_now": "Unknown",
    "types": "",
    "place_id": "ChIJo5afrBMouYURz3IgSD352mo"
  },
  {
    "name": "Playa San Agustinillo",
    "category": "Beaches",
    "latitude": 15.6653474,
    "longitude": -96.54328369999999,
    "address": "Playa San Agustinillo, Oaxaca, Mexico",
    "phone": "N/A",
    "website": "N/A",
    "google_maps_url": "https://maps.google.com/?cid=603998435613617069",
    "rating": 4.8,
    "review_count": 690,
    "price_level": "N/A",
    "hours": "N/A",
    "open_now": "Unknown",
    "types": "",
    "place_id": "ChIJL4hL4jYouYURrSukh2DVYQg"
  },
  {
    "name": "Mazunte",
    "category": "Beaches",
    "latitude": 15.6649026,
    "longitude": -96.552819,
    "address": "Mazunte, Oaxaca, Mexico",
    "phone": "N/A",
    "website": "N/A",
    "google_maps_url": "https://maps.google.com/?cid=15068424920817933686",
    "rating": 4.8,
    "review_count": 503,
    "price_level": "N/A",
    "hours": "N/A",
    "open_now": "Unknown",
    "types": "",
    "place_id": "ChIJbc54wT4ouYURdh3_KaHMHdE"
  },
  {
    "name": "Beach Bikes Mazunte",
    "category": "Beaches",
    "latitude": 15.667844,
    "longitude": -96.55572389999999,
    "address": "Rinconcito, 70947 Mazunte, Oax., Mexico",
    "phone": "56 2652 6220",
    "website": "https://instagram.com/crownagencymx",
    "google_maps_url": "https://maps.google.com/?cid=9438386282006063768",
    "rating": "N/A",
    "review_count": "N/A",
    "price_level": "N/A",
    "hours": "Monday: 8:00 AM – 6:00 PM | Tuesday: 8:00 AM – 6:00 PM | Wednesday: 8:00 AM – 6:00 PM | Thursday: 8:00 AM – 6:00 PM | Friday: 8:00 AM – 6:00 PM | Saturday: 8:00 AM – 6:00 PM | Sunday: 8:00 AM – 6:00 PM",
    "open_now": false,
    "types": "",
    "place_id": "ChIJA9Uvtq0puYURmCrkF1Hi-4I"
  },
  {
    "name": "Casablanca Surf & Beach Bar",
    "category": "Beaches",
    "latitude": 15.6655635,
    "longitude": -96.5463377,
    "address": "70947 San Agustinillo, Oax., Mexico",
    "phone": "958 142 5027",
    "website": "N/A",
    "google_maps_url": "https://maps.google.com/?cid=2718772623507626786",
    "rating": 5,
    "review_count": 4,
    "price_level": "N/A",
    "hours": "Monday: 10:00 AM – 6:30 PM | Tuesday: 10:00 AM – 6:30 PM | Wednesday: 10:00 AM – 6:30 PM | Thursday: 10:00 AM – 6:30 PM | Friday: 10:00 AM – 6:30 PM | Saturday: 10:00 AM – 6:30 PM | Sunday: 10:00 AM – 6:30 PM",
    "open_now": false,
    "types": "",
    "place_id": "ChIJsdgEZr0puYURIps64UsFuyU"
  },
  {
    "name": "Rinconcito",
    "category": "Beaches",
    "latitude": 15.6633037,
    "longitude": -96.5559674,
    "address": "Rinconcito, 70947 Oax., Mexico",
    "phone": "N/A",
    "website": "N/A",
    "google_maps_url": "https://maps.google.com/?cid=4464319183141516370",
    "rating": 4.7,
    "review_count": 1364,
    "price_level": "N/A",
    "hours": "N/A",
    "open_now": "Unknown",
    "types": "",
    "place_id": "ChIJ0yCHyT8ouYURUrQc46Ry9D0"
  },
  {
    "name": "Playa Camarón",
    "category": "Beaches",
    "latitude": 15.662911,
    "longitude": -96.52576630000002,
    "address": "Playa Camarón, Corredor Bahia Camaron, 70947 Oax., Mexico",
    "phone": "N/A",
    "website": "http://www.playasmexico.com.mx/",
    "google_maps_url": "https://maps.google.com/?cid=7451452218415906739",
    "rating": 3.9,
    "review_count": 27,
    "price_level": "N/A",
    "hours": "N/A",
    "open_now": "Unknown",
    "types": "",
    "place_id": "ChIJgcnEEsgpuYURs_95K1DgaGc"
  },
  {
    "name": "CASA MYA \"BEACH HOUSE OAXACA \"",
    "category": "Beaches",
    "latitude": 15.6753027,
    "longitude": -96.56885179999999,
    "address": "Santa María Tonameca, 70947 Oax., Mexico",
    "phone": "N/A",
    "website": "N/A",
    "google_maps_url": "https://maps.google.com/?cid=13414381978441563277",
    "rating": 5,
    "review_count": 3,
    "price_level": "N/A",
    "hours": "N/A",
    "open_now": "Unknown",
    "types": "",
    "place_id": "ChIJBYm1VAApuYURjTxpQlZ1Kbo"
  },
  {
    "name": "Alba Beach Club",
    "category": "Beaches",
    "latitude": 15.6656521,
    "longitude": -96.5454668,
    "address": "Avenida Principal San Agustinillo dentro de Hotel Buda Tortuga, 70946 San gustinillo, 70985 OAXACA, Oax., Mexico",
    "phone": "222 511 6748",
    "website": "N/A",
    "google_maps_url": "https://maps.google.com/?cid=16991513982244283625",
    "rating": 4.2,
    "review_count": 20,
    "price_level": "N/A",
    "hours": "Monday: 8:00 AM – 8:00 PM | Tuesday: 8:00 AM – 8:00 PM | Wednesday: 8:00 AM – 8:00 PM | Thursday: 8:00 AM – 8:00 PM | Friday: 8:00 AM – 8:00 PM | Saturday: 8:00 AM – 8:00 PM | Sunday: 8:00 AM – 8:00 PM",
    "open_now": false,
    "types": "",
    "place_id": "ChIJT9g7d4IpuYUR6eTAI_H7zes"
  },
  {
    "name": "Camping Soleni Mazunte",
    "category": "Beaches",
    "latitude": 15.6626078,
    "longitude": -96.56022379999999,
    "address": "Frente hotel el copal, Cam. a Playa Mermejita, 70947 Mazunte, Oax., Mexico",
    "phone": "55 6219 8223",
    "website": "https://www.facebook.com/profile.php?id=61551604601596&mibextid=LQQJ4d",
    "google_maps_url": "https://maps.google.com/?cid=15407010010743318920",
    "rating": 5,
    "review_count": 62,
    "price_level": "N/A",
    "hours": "N/A",
    "open_now": "Unknown",
    "types": "",
    "place_id": "ChIJc4ffjsYpuYURiCk-lfmx0NU"
  },
  {
    "name": "Casa Ukiyo Hotel Boutique",
    "category": "Beaches",
    "latitude": 15.6660177,
    "longitude": -96.53795,
    "address": "Rancho Las Hamacas, 70947 San Agustinillo, Oax., Mexico",
    "phone": "56 2640 7872",
    "website": "https://stayukiyo.com/",
    "google_maps_url": "https://maps.google.com/?cid=2754600908849528974",
    "rating": 5,
    "review_count": 23,
    "price_level": "N/A",
    "hours": "N/A",
    "open_now": "Unknown",
    "types": "",
    "place_id": "ChIJDT_xYGopuYURjsDxne5OOiY"
  },
  {
    "name": "El Manzano Zapotal Santa María Tonameca",
    "category": "Viewpoints",
    "latitude": 15.6833711,
    "longitude": -96.57489389999999,
    "address": "70947 Santa María Tonameca, Oaxaca, Mexico",
    "phone": "958 130 4899",
    "website": "N/A",
    "google_maps_url": "https://maps.google.com/?cid=13214543945918021803",
    "rating": 3.7,
    "review_count": 3,
    "price_level": "N/A",
    "hours": "N/A",
    "open_now": "Unknown",
    "types": "",
    "place_id": "ChIJT8EM2AEouYURq4A7hbR9Y7c"
  },
  {
    "name": "Los Pochotes Eco Lodge",
    "category": "Viewpoints",
    "latitude": 15.669613,
    "longitude": -96.56323650000002,
    "address": "Unnamed Road, 70947 Oax., Mexico",
    "phone": "N/A",
    "website": "N/A",
    "google_maps_url": "https://maps.google.com/?cid=16559664587943543999",
    "rating": 5,
    "review_count": 5,
    "price_level": "N/A",
    "hours": "N/A",
    "open_now": "Unknown",
    "types": "",
    "place_id": "ChIJGaujNLkpuYURv4T9szS_z-U"
  },
  {
    "name": "Meditation hill of Shambhala",
    "category": "Viewpoints",
    "latitude": 15.6624875,
    "longitude": -96.5241921,
    "address": "C. Arco Iris 6, Agua Marina, 70904 Playa Zipolite, Oax., Mexico",
    "phone": "N/A",
    "website": "N/A",
    "google_maps_url": "https://maps.google.com/?cid=13575961395268291206",
    "rating": 4.3,
    "review_count": 6,
    "price_level": "N/A",
    "hours": "N/A",
    "open_now": "Unknown",
    "types": "",
    "place_id": "ChIJ8eCYmsopuYURhgpi4fWAZ7w"
  },
  {
    "name": "Rinconando Renta de Scooters",
    "category": "Shops",
    "latitude": 15.667322,
    "longitude": -96.5558137,
    "address": "Rinconcito, 70947 Mazunte, Oax., Mexico",
    "phone": "958 142 2294",
    "website": "N/A",
    "google_maps_url": "https://maps.google.com/?cid=308900224397157241",
    "rating": 3.6,
    "review_count": 7,
    "price_level": "N/A",
    "hours": "Monday: Open 24 hours | Tuesday: Open 24 hours | Wednesday: Open 24 hours | Thursday: Open 24 hours | Friday: Open 24 hours | Saturday: Open 24 hours | Sunday: Open 24 hours",
    "open_now": true,
    "types": "",
    "place_id": "ChIJkXyYxjQpuYUReSM7Eh5vSQQ"
  },
  {
    "name": "Tortilleria Maya",
    "category": "Shops",
    "latitude": 15.6689533,
    "longitude": -96.5533189,
    "address": "70947 Mazunte, Oax., Mexico",
    "phone": "N/A",
    "website": "N/A",
    "google_maps_url": "https://maps.google.com/?cid=11908232342410894238",
    "rating": 4.8,
    "review_count": 4,
    "price_level": "N/A",
    "hours": "N/A",
    "open_now": "Unknown",
    "types": "",
    "place_id": "ChIJISPBG5MpuYURnhs4EDmKQqU"
  },
  {
    "name": "Lichita",
    "category": "Shops",
    "latitude": 15.6668033,
    "longitude": -96.5511868,
    "address": "70947 Mazunte, Oax., Mexico",
    "phone": "N/A",
    "website": "N/A",
    "google_maps_url": "https://maps.google.com/?cid=12027800934495616140",
    "rating": 4.3,
    "review_count": 4,
    "price_level": "N/A",
    "hours": "N/A",
    "open_now": "Unknown",
    "types": "",
    "place_id": "ChIJwXnMZ2cpuYURjPy4UTlV66Y"
  },
  {
    "name": "Restaurante sahuaro",
    "category": "Shops",
    "latitude": 15.6676798,
    "longitude": -96.55453999999999,
    "address": "70947 Mazunte, Oax., Mexico",
    "phone": "N/A",
    "website": "N/A",
    "google_maps_url": "https://maps.google.com/?cid=15712029905158058126",
    "rating": "N/A",
    "review_count": "N/A",
    "price_level": "N/A",
    "hours": "N/A",
    "open_now": "Unknown",
    "types": "",
    "place_id": "ChIJI0q0XwApuYURjrBC7fNXDNo"
  },
  {
    "name": "Marquesitas Mi Dulce Tentación",
    "category": "Shops",
    "latitude": 15.6680629,
    "longitude": -96.5555055,
    "address": "70947 Mazunte, Oax., Mexico",
    "phone": "N/A",
    "website": "N/A",
    "google_maps_url": "https://maps.google.com/?cid=17431257741540039469",
    "rating": 5,
    "review_count": 1,
    "price_level": "N/A",
    "hours": "Monday: 6:00 – 10:30 PM | Tuesday: 6:00 – 10:30 PM | Wednesday: 6:00 – 10:30 PM | Thursday: 6:00 – 10:30 PM | Friday: 6:00 – 10:30 PM | Saturday: 6:00 – 10:30 PM | Sunday: 6:00 – 10:30 PM",
    "open_now": false,
    "types": "",
    "place_id": "ChIJTZraRwApuYURLZvFqI9E6PE"
  },
  {
    "name": "Por Siempre Tatuajes",
    "category": "Shops",
    "latitude": 15.6668063,
    "longitude": -96.5510891,
    "address": "a unos metros del museo de la tortuga, Calle Principal S/N, 70947 Mazunte, Oax., Mexico",
    "phone": "958 111 8523",
    "website": "https://www.instagram.com/por_siempre_tatuajes?igsh=bjByeHcwOHRsM3Vh&utm_source=qr",
    "google_maps_url": "https://maps.google.com/?cid=12558338922891390207",
    "rating": 5,
    "review_count": 8,
    "price_level": "N/A",
    "hours": "Monday: 12:00 AM – 7:00 PM | Tuesday: 12:00 AM – 7:00 PM | Wednesday: 12:00 AM – 7:00 PM | Thursday: 12:00 – 7:00 PM | Friday: 12:00 – 7:00 PM | Saturday: 12:00 – 7:00 PM | Sunday: Closed",
    "open_now": true,
    "types": "",
    "place_id": "ChIJ8xfwajQpuYUR_yzno7YuSK4"
  },
  {
    "name": "AlmaArte Boutique",
    "category": "Shops",
    "latitude": 15.6671223,
    "longitude": -96.54816919999999,
    "address": "El órgano, 70946 Mazunte, Oax., Mexico",
    "phone": "958 119 4111",
    "website": "https://almaarte.design.and.art/",
    "google_maps_url": "https://maps.google.com/?cid=10808204942572821908",
    "rating": 5,
    "review_count": 13,
    "price_level": "N/A",
    "hours": "N/A",
    "open_now": "Unknown",
    "types": "",
    "place_id": "ChIJW6UeIswpuYURlJ2shSF1_pU"
  },
  {
    "name": "Estrella Fugaz",
    "category": "Shops",
    "latitude": 15.6641216,
    "longitude": -96.55575999999999,
    "address": "Rinconcito SN, 70947 Mazunte, Oax., Mexico",
    "phone": "958 113 2895",
    "website": "https://airbnb.com/h/estrellaloftmazunte",
    "google_maps_url": "https://maps.google.com/?cid=2141759933868501878",
    "rating": 4,
    "review_count": 882,
    "price_level": "$$",
    "hours": "Monday: 7:00 AM – 10:00 PM | Tuesday: 7:00 AM – 10:00 PM | Wednesday: 7:00 AM – 10:00 PM | Thursday: 7:00 AM – 10:00 PM | Friday: 7:00 AM – 10:00 PM | Saturday: 7:00 AM – 10:00 PM | Sunday: 7:00 AM – 10:00 PM",
    "open_now": false,
    "types": "",
    "place_id": "ChIJG0JVNj4ouYURdmtl9E8PuR0"
  },
  {
    "name": "Tienda Ecologica",
    "category": "Shops",
    "latitude": 15.6678066,
    "longitude": -96.554887,
    "address": "av. paseo de entre la Barrita y el Desarrollo, 70947 Mazunte, Oax., Mexico",
    "phone": "N/A",
    "website": "N/A",
    "google_maps_url": "https://maps.google.com/?cid=4068450423217031092",
    "rating": 5,
    "review_count": 2,
    "price_level": "N/A",
    "hours": "N/A",
    "open_now": "Unknown",
    "types": "",
    "place_id": "ChIJkbDvHhspuYURtIcjthoKdjg"
  },
  {
    "name": "Casa Mazunteña",
    "category": "Shops",
    "latitude": 15.6694851,
    "longitude": -96.55722,
    "address": "calle, 70946 Mazunte, Oax., Mexico",
    "phone": "55 4851 7111",
    "website": "http://casamazunteña.com/",
    "google_maps_url": "https://maps.google.com/?cid=11934082026909063879",
    "rating": 4.5,
    "review_count": 29,
    "price_level": "N/A",
    "hours": "N/A",
    "open_now": "Unknown",
    "types": "",
    "place_id": "ChIJaZ0lqK4puYURx9pJvl9gnqU"
  },
  {
    "name": "El tapanco",
    "category": "Shops",
    "latitude": 15.6667432,
    "longitude": -96.55562429999999,
    "address": "La Catrina 5, El panteon, 70946 Mazunte, Oax., Mexico",
    "phone": "N/A",
    "website": "N/A",
    "google_maps_url": "https://maps.google.com/?cid=11204060040535357664",
    "rating": 5,
    "review_count": 1,
    "price_level": "N/A",
    "hours": "N/A",
    "open_now": "Unknown",
    "types": "",
    "place_id": "ChIJa62Tf6IpuYUR4DhCxj7RfJs"
  },
  {
    "name": "SAMBODHI SHOP",
    "category": "Shops",
    "latitude": 15.6649476,
    "longitude": -96.55719719999999,
    "address": "70949 Cerrada la catrina 1 cam a, Cam. Mermejita, 70949 Mazunte, Oax., Mexico",
    "phone": "984 178 9132",
    "website": "https://instagram.com/sambodhi.shop?igshid=YmMyMTA2M2Y=",
    "google_maps_url": "https://maps.google.com/?cid=17893323783805356259",
    "rating": 5,
    "review_count": 20,
    "price_level": "N/A",
    "hours": "Monday: 1:00 – 9:00 PM | Tuesday: 1:00 – 9:00 PM | Wednesday: Closed | Thursday: 1:00 – 9:00 PM | Friday: 1:00 – 9:00 PM | Saturday: 1:00 – 9:00 PM | Sunday: Closed",
    "open_now": false,
    "types": "",
    "place_id": "ChIJa5Pii3YpuYUR40jEsC3bUfg"
  },
  {
    "name": "Helados Terra Nieve Mazunte",
    "category": "Shops",
    "latitude": 15.6678463,
    "longitude": -96.5557721,
    "address": "Rinconcito, 70947 Mazunte, Oax., Mexico",
    "phone": "N/A",
    "website": "N/A",
    "google_maps_url": "https://maps.google.com/?cid=928500418656608352",
    "rating": 5,
    "review_count": 1,
    "price_level": "N/A",
    "hours": "Monday: Closed | Tuesday: Closed | Wednesday: 9:00 AM – 11:00 PM | Thursday: 9:00 AM – 11:00 PM | Friday: 9:00 AM – 11:00 PM | Saturday: 9:00 AM – 11:00 PM | Sunday: 9:00 AM – 11:00 PM",
    "open_now": false,
    "types": "",
    "place_id": "ChIJpWU5BPMpuYURYCDUGzay4gw"
  },
  {
    "name": "Madre Sierra",
    "category": "Shops",
    "latitude": 15.6660276,
    "longitude": -96.5558325,
    "address": "calle rinconcito sin numero, 70947 Mazunte, Oax., Mexico",
    "phone": "N/A",
    "website": "https://www.madresierramx.com/",
    "google_maps_url": "https://maps.google.com/?cid=6195489209082370327",
    "rating": 4.7,
    "review_count": 7,
    "price_level": "N/A",
    "hours": "Monday: 9:00 AM – 6:00 PM | Tuesday: 9:00 AM – 6:00 PM | Wednesday: Closed | Thursday: 9:00 AM – 6:00 PM | Friday: 9:00 AM – 6:00 PM | Saturday: 9:00 AM – 6:00 PM | Sunday: 9:00 AM – 6:00 PM",
    "open_now": false,
    "types": "",
    "place_id": "ChIJ-e461qkpuYURF9keTZzM-lU"
  },
  {
    "name": "La Cabañita",
    "category": "Shops",
    "latitude": 15.6661545,
    "longitude": -96.5422001,
    "address": "Dom. conocido, 70947 San Agustinillo, Oax., Mexico",
    "phone": "N/A",
    "website": "N/A",
    "google_maps_url": "https://maps.google.com/?cid=11157866365051463099",
    "rating": "N/A",
    "review_count": "N/A",
    "price_level": "N/A",
    "hours": "N/A",
    "open_now": "Unknown",
    "types": "",
    "place_id": "ChIJ405GPQApuYURu-UrlFe02Jo"
  },
  {
    "name": "Tienda De Cosmeticos Mazunte",
    "category": "Shops",
    "latitude": 15.6679914,
    "longitude": -96.55644939999999,
    "address": "México 175 26, 70947 Mazunte, Oax., Mexico",
    "phone": "958 128 3922",
    "website": "http://www.cosmeticosmazunte.com/",
    "google_maps_url": "https://maps.google.com/?cid=9149954670761107113",
    "rating": 4.4,
    "review_count": 465,
    "price_level": "N/A",
    "hours": "Monday: 9:00 AM – 4:00 PM | Tuesday: 9:00 AM – 4:00 PM | Wednesday: 9:00 AM – 4:00 PM | Thursday: 9:00 AM – 4:00 PM | Friday: 9:00 AM – 4:00 PM | Saturday: 9:00 AM – 4:00 PM | Sunday: 10:00 AM – 2:00 PM",
    "open_now": false,
    "types": "",
    "place_id": "ChIJg08ijT0ouYURqV6kZUsr-34"
  },
  {
    "name": "Helados tortuga marina / sea turtle icecream",
    "category": "Shops",
    "latitude": 15.666772,
    "longitude": -96.55138629999999,
    "address": "Carretera san Antonio - puerto angel, 70947 Mazunte, Oax., Mexico",
    "phone": "962 111 6833",
    "website": "N/A",
    "google_maps_url": "https://maps.google.com/?cid=2438913196010857495",
    "rating": 4.5,
    "review_count": 50,
    "price_level": "N/A",
    "hours": "Monday: 11:00 AM – 9:30 PM | Tuesday: 11:00 AM – 9:30 PM | Wednesday: 11:00 AM – 9:30 PM | Thursday: 11:00 AM – 9:30 PM | Friday: 11:00 AM – 9:30 PM | Saturday: 11:00 AM – 9:30 PM | Sunday: 11:00 AM – 9:30 PM",
    "open_now": false,
    "types": "",
    "place_id": "ChIJMeUvTqYpuYURF2Q9PqHC2CE"
  },
  {
    "name": "Mercado Orgánico, Mazunte",
    "category": "Markets",
    "latitude": 15.668046,
    "longitude": -96.55693219999999,
    "address": "México 175, 70947 Mazunte, Oax., Mexico",
    "phone": "N/A",
    "website": "N/A",
    "google_maps_url": "https://maps.google.com/?cid=12864020639281751563",
    "rating": 4.7,
    "review_count": 29,
    "price_level": "N/A",
    "hours": "Monday: Closed | Tuesday: Closed | Wednesday: Closed | Thursday: Closed | Friday: Closed | Saturday: Closed | Sunday: 9:00 AM – 3:00 PM",
    "open_now": false,
    "types": "",
    "place_id": "ChIJNz86-hYpuYURC6aua50uhrI"
  },
  {
    "name": "Bliss Bikes - Scooter Rent",
    "category": "Markets",
    "latitude": 15.6667601,
    "longitude": -96.54977919999999,
    "address": "70947 San Agustinillo, Oax., Mexico",
    "phone": "961 874 8546",
    "website": "N/A",
    "google_maps_url": "https://maps.google.com/?cid=12456138149319992875",
    "rating": 4.9,
    "review_count": 13,
    "price_level": "N/A",
    "hours": "Monday: 10:00 AM – 7:00 PM | Tuesday: 10:00 AM – 7:00 PM | Wednesday: 10:00 AM – 7:00 PM | Thursday: 10:00 AM – 7:00 PM | Friday: 10:00 AM – 7:00 PM | Saturday: 10:00 AM – 7:00 PM | Sunday: 10:00 AM – 7:00 PM",
    "open_now": false,
    "types": "",
    "place_id": "ChIJFbiMnucdRE4RK-Zov6YX3aw"
  },
  {
    "name": "Café Maria José",
    "category": "Markets",
    "latitude": 15.6734717,
    "longitude": -96.5585455,
    "address": "La Huera S/N, La Huerta, 70947 Mazunte, Oax., Mexico",
    "phone": "273 116 3081",
    "website": "https://www.casalasalmas.com/",
    "google_maps_url": "https://maps.google.com/?cid=15205659644855708254",
    "rating": "N/A",
    "review_count": "N/A",
    "price_level": "N/A",
    "hours": "Monday: 12:00 – 10:00 PM | Tuesday: 12:00 – 10:00 PM | Wednesday: 12:00 – 10:00 PM | Thursday: 12:00 – 10:00 PM | Friday: 12:00 – 10:00 PM | Saturday: 12:00 – 10:00 PM | Sunday: 12:00 – 10:00 PM",
    "open_now": false,
    "types": "",
    "place_id": "ChIJu5G4UJYpuYURXuodS-JaBdM"
  },
  {
    "name": "Food, Flower & Market",
    "category": "Markets",
    "latitude": 15.6673622,
    "longitude": -96.55414309999999,
    "address": "México 175 26, 70947 Mazunte, Oax., Mexico",
    "phone": "951 430 1668",
    "website": "N/A",
    "google_maps_url": "https://maps.google.com/?cid=8814236161776685274",
    "rating": 4.4,
    "review_count": 15,
    "price_level": "N/A",
    "hours": "N/A",
    "open_now": "Unknown",
    "types": "",
    "place_id": "ChIJP8VCml4puYUR2hAa3RZ1Uno"
  },
  {
    "name": "Frutas y Veduras Mique",
    "category": "Markets",
    "latitude": 15.6677476,
    "longitude": -96.5542322,
    "address": "un costado de la Av. principal al pasar el puente, cam. a la Aguaje s/n-a, 70947 Mazunte, Oax., Mexico",
    "phone": "N/A",
    "website": "N/A",
    "google_maps_url": "https://maps.google.com/?cid=16137623241421376715",
    "rating": "N/A",
    "review_count": "N/A",
    "price_level": "N/A",
    "hours": "N/A",
    "open_now": "Unknown",
    "types": "",
    "place_id": "ChIJnXKQRZkpuYURy0wCWNZa9N8"
  },
  {
    "name": "COSMO",
    "category": "Markets",
    "latitude": 15.6676923,
    "longitude": -96.5558054,
    "address": "Rinconcito, 70947 Mazunte, Oax., Mexico",
    "phone": "771 416 4118",
    "website": "N/A",
    "google_maps_url": "https://maps.google.com/?cid=5911723742068490512",
    "rating": 5,
    "review_count": 1,
    "price_level": "N/A",
    "hours": "N/A",
    "open_now": "Unknown",
    "types": "",
    "place_id": "ChIJa8nRhJQpuYUREEE8-GupClI"
  },
  {
    "name": "Yu'gupa Orgánica Tienda Saludable",
    "category": "Organic Shops",
    "latitude": 15.6678016,
    "longitude": -96.5548383,
    "address": "av. paseo de entre la Barrita y el Desarrollo, 70947 Mazunte, Oax., Mexico",
    "phone": "55 5818 5222",
    "website": "N/A",
    "google_maps_url": "https://maps.google.com/?cid=15993666925474124968",
    "rating": 4.7,
    "review_count": 64,
    "price_level": "N/A",
    "hours": "Monday: 9:00 AM – 10:00 PM | Tuesday: 9:00 AM – 10:00 PM | Wednesday: 9:00 AM – 10:00 PM | Thursday: 9:00 AM – 10:00 PM | Friday: 9:00 AM – 10:00 PM | Saturday: 9:00 AM – 10:00 PM | Sunday: 9:00 AM – 10:00 PM",
    "open_now": false,
    "types": "",
    "place_id": "ChIJJ5Vi5W4puYURqJTMpFTr9N0"
  },
  {
    "name": "Cafetería La Margarita",
    "category": "Organic Shops",
    "latitude": 15.6683548,
    "longitude": -96.5535688,
    "address": "Calle la parota, 70947 México, Oax., Mexico",
    "phone": "958 117 4378",
    "website": "N/A",
    "google_maps_url": "https://maps.google.com/?cid=5710141039427967019",
    "rating": 5,
    "review_count": 3,
    "price_level": "N/A",
    "hours": "Monday: 8:00 AM – 9:00 PM | Tuesday: Closed | Wednesday: 8:00 AM – 9:00 PM | Thursday: 8:00 AM – 9:00 PM | Friday: 8:00 AM – 9:00 PM | Saturday: 8:00 AM – 9:00 PM | Sunday: 8:00 AM – 9:00 PM",
    "open_now": false,
    "types": "",
    "place_id": "ChIJ89qCoqMpuYURK9h7kAV_Pk8"
  },
  {
    "name": "Espacio multicultural \"Sentido Contrario\"",
    "category": "Organic Shops",
    "latitude": 15.6660671,
    "longitude": -96.5559447,
    "address": "70947 Mazunte, Oax., Mexico",
    "phone": "55 6063 2928",
    "website": "https://www.facebook.com/Sentido-Contrario-108090728122051",
    "google_maps_url": "https://maps.google.com/?cid=3661841677826061392",
    "rating": 5,
    "review_count": 4,
    "price_level": "N/A",
    "hours": "N/A",
    "open_now": "Unknown",
    "types": "",
    "place_id": "ChIJV6XUgXcpuYURUPSKzpp50TI"
  },
  {
    "name": "Piedra Azul",
    "category": "Organic Shops",
    "latitude": 15.6826064,
    "longitude": -96.56500559999999,
    "address": "Calle Causuches s/n, 70947 Zapotal, Oax., Mexico",
    "phone": "55 1568 2049",
    "website": "https://piedraazulmx.com/",
    "google_maps_url": "https://maps.google.com/?cid=9896962892777313279",
    "rating": 5,
    "review_count": 1,
    "price_level": "N/A",
    "hours": "Monday: 7:00 AM – 4:00 PM | Tuesday: 7:00 AM – 4:00 PM | Wednesday: 7:00 AM – 4:00 PM | Thursday: 7:00 AM – 4:00 PM | Friday: Closed | Saturday: 7:00 AM – 4:00 PM | Sunday: 7:00 AM – 4:00 PM",
    "open_now": false,
    "types": "",
    "place_id": "ChIJyb1F2u0puYUR_9M2i1ATWYk"
  },
  {
    "name": "LA CASA DE LOS PUEBLOS DEL CACAO",
    "category": "Organic Shops",
    "latitude": 15.6678006,
    "longitude": -96.5548294,
    "address": "Mercado Orgánico de Mazunte, México 175, 70902 Mazunte, Oax., Mexico",
    "phone": "958 173 9067",
    "website": "http://www.casadelcacao.org/",
    "google_maps_url": "https://maps.google.com/?cid=3833356557929174651",
    "rating": 5,
    "review_count": 1,
    "price_level": "N/A",
    "hours": "Monday: Closed | Tuesday: Closed | Wednesday: Closed | Thursday: Closed | Friday: Closed | Saturday: Closed | Sunday: 9:00 AM – 3:00 PM",
    "open_now": false,
    "types": "",
    "place_id": "ChIJ0yWoaZgpuYURe1bIvHrRMjU"
  },
  {
    "name": "Doba Mini-Super",
    "category": "Organic Shops",
    "latitude": 15.6667645,
    "longitude": -96.55038449999999,
    "address": "Paseo del Mazunte SN, 70946 Mazunte, Oax., Mexico",
    "phone": "81 2521 8751",
    "website": "https://linktr.ee/doba.mazunte",
    "google_maps_url": "https://maps.google.com/?cid=10512186506063476554",
    "rating": 5,
    "review_count": 2,
    "price_level": "N/A",
    "hours": "Monday: 8:00 AM – 3:30 PM | Tuesday: 8:00 AM – 3:30 PM | Wednesday: 8:00 AM – 3:30 PM | Thursday: 8:00 AM – 3:30 PM | Friday: 8:00 AM – 3:30 PM | Saturday: 8:00 AM – 3:30 PM | Sunday: 8:00 AM – 3:30 PM",
    "open_now": false,
    "types": "",
    "place_id": "ChIJYaqVpUcpuYURSneRau7J4pE"
  },
  {
    "name": "Aldea Corazón",
    "category": "Organic Shops",
    "latitude": 15.6765625,
    "longitude": -96.5645625,
    "address": "MCGP+J5, 70947 Oax., Mexico",
    "phone": "662 318 5195",
    "website": "https://www.airbnb.mx/rooms/1332033396889023903?adults=4&search_mode=regular_search&check_in=2025-03-20&check_out=2025-03-23&source_impression_id=p3_1736719103_P38iMzbKL1lMujpS&previous_page_section_name=1000&federated_search_id=7ee8d9be-01a9-4409-9267-5bdc259fb37b",
    "google_maps_url": "https://maps.google.com/?cid=10496254229848005886",
    "rating": 4.7,
    "review_count": 6,
    "price_level": "N/A",
    "hours": "N/A",
    "open_now": "Unknown",
    "types": "",
    "place_id": "ChIJldhCWgApuYUR_hxISpwvqpE"
  },
  {
    "name": "VIVO La Kombuchería",
    "category": "Organic Shops",
    "latitude": 15.6669563,
    "longitude": -96.5479508,
    "address": "México 175, 70947 Mazunte, Oax., Mexico",
    "phone": "N/A",
    "website": "N/A",
    "google_maps_url": "https://maps.google.com/?cid=16822206308411609966",
    "rating": 5,
    "review_count": 35,
    "price_level": "N/A",
    "hours": "Monday: 10:00 AM – 5:00 PM | Tuesday: 10:00 AM – 5:00 PM | Wednesday: 10:00 AM – 5:00 PM | Thursday: 10:00 AM – 5:00 PM | Friday: 10:00 AM – 5:00 PM | Saturday: 10:00 AM – 5:00 PM | Sunday: 10:00 AM – 5:00 PM",
    "open_now": false,
    "types": "",
    "place_id": "ChIJmV4FPropuYURbpM1d4J7dOk"
  },
  {
    "name": "Las tortuguitas",
    "category": "Organic Shops",
    "latitude": 15.6660155,
    "longitude": -96.5558391,
    "address": "Rinconcito, 70947 Mazunte, Oax., Mexico",
    "phone": "958 118 0842",
    "website": "N/A",
    "google_maps_url": "https://maps.google.com/?cid=6138001486955437798",
    "rating": 4.5,
    "review_count": 8,
    "price_level": "N/A",
    "hours": "Monday: Closed | Tuesday: 6:00 AM – 10:00 PM | Wednesday: 6:00 AM – 10:00 PM | Thursday: 6:00 AM – 10:00 PM | Friday: 6:00 AM – 10:00 PM | Saturday: 6:00 AM – 10:00 PM | Sunday: Closed",
    "open_now": false,
    "types": "",
    "place_id": "ChIJieVJDD4ouYUR5l7M9NSPLlU"
  },
  {
    "name": "Pizzeria La Buena Onda",
    "category": "Organic Shops",
    "latitude": 15.6656619,
    "longitude": -96.55557549999999,
    "address": "Estacionamiento piceno baños y regadera, Atras del viaje de jeny y mar y aun costado el granito de arroz, Rinconcito & Palma Real, 70947 Mazunte, Oax., Mexico",
    "phone": "777 830 9034",
    "website": "https://www.facebook.com/profile.php?id=100092296126909&mibextid=ZbWKwL",
    "google_maps_url": "https://maps.google.com/?cid=5266049262178685971",
    "rating": 4.9,
    "review_count": 103,
    "price_level": "N/A",
    "hours": "Monday: 5:30 – 11:30 PM | Tuesday: 5:30 – 11:30 PM | Wednesday: 5:30 – 11:30 PM | Thursday: 5:30 – 11:30 PM | Friday: 5:30 – 11:30 PM | Saturday: 5:30 – 11:00 PM | Sunday: 5:30 – 11:30 PM",
    "open_now": false,
    "types": "",
    "place_id": "ChIJaYr6bEYpuYURE1TeOefDFEk"
  },
  {
    "name": "Los mejores mojitos",
    "category": "Organic Shops",
    "latitude": 15.6638737,
    "longitude": -96.55563649999999,
    "address": "Rinconcito, Calle playa, 70947 Mazunte, Oax., Mexico",
    "phone": "958 128 9426",
    "website": "N/A",
    "google_maps_url": "https://maps.google.com/?cid=16141602916356679994",
    "rating": 5,
    "review_count": 23,
    "price_level": "N/A",
    "hours": "Monday: 2:00 – 9:00 PM | Tuesday: 2:00 – 9:00 PM | Wednesday: 2:00 – 9:00 PM | Thursday: 2:00 – 9:00 PM | Friday: 2:00 – 9:00 PM | Saturday: 2:00 – 9:00 PM | Sunday: 2:00 – 9:00 PM",
    "open_now": false,
    "types": "",
    "place_id": "ChIJQXgthd0puYUROmnZnlR-AuA"
  },
  {
    "name": "La casita del chocolate",
    "category": "Artisan Shops",
    "latitude": 15.6762066,
    "longitude": -96.5686219,
    "address": "70947 Ventanilla, 70947 Santa María Tonameca, Oax., Mexico",
    "phone": "958 107 7891",
    "website": "N/A",
    "google_maps_url": "https://maps.google.com/?cid=9147237517426632371",
    "rating": 4.4,
    "review_count": 7,
    "price_level": "N/A",
    "hours": "Monday: 8:00 AM – 6:00 PM | Tuesday: 8:00 AM – 6:00 PM | Wednesday: 8:00 AM – 6:00 PM | Thursday: 8:00 AM – 6:00 PM | Friday: 8:00 AM – 6:00 PM | Saturday: 8:00 AM – 6:00 PM | Sunday: 8:00 AM – 6:00 PM",
    "open_now": false,
    "types": "",
    "place_id": "ChIJH_QgXg4puYURsyZX1g6E8X4"
  },
  {
    "name": "ArteSano",
    "category": "Stores",
    "latitude": 15.6660867,
    "longitude": -96.5426457,
    "address": "México 175 141, 70947 San Agustinillo, Oax., Mexico",
    "phone": "958 111 3986",
    "website": "https://www.instagram.com/sano_arte/",
    "google_maps_url": "https://maps.google.com/?cid=15997572280946991108",
    "rating": 4.6,
    "review_count": 11,
    "price_level": "N/A",
    "hours": "Monday: 10:00 AM – 5:00 PM | Tuesday: Closed | Wednesday: 10:00 AM – 5:00 PM | Thursday: 10:00 AM – 5:00 PM | Friday: 10:00 AM – 5:00 PM | Saturday: 10:00 AM – 5:00 PM | Sunday: 10:00 AM – 3:00 PM",
    "open_now": false,
    "types": "",
    "place_id": "ChIJzZ7jxTYouYURBCB7EjvLAt4"
  },
  {
    "name": "Artesanias y ropa \"Huitzakaxin\"",
    "category": "Stores",
    "latitude": 15.6657458,
    "longitude": -96.55348839999999,
    "address": "70947 Mazunte, Oax., Mexico",
    "phone": "958 243 6655",
    "website": "N/A",
    "google_maps_url": "https://maps.google.com/?cid=17875157300640425442",
    "rating": 5,
    "review_count": 2,
    "price_level": "N/A",
    "hours": "Monday: 9:00 AM – 7:00 PM | Tuesday: 9:00 AM – 7:00 PM | Wednesday: 9:00 AM – 7:00 PM | Thursday: 9:00 AM – 7:00 PM | Friday: 9:00 AM – 7:00 PM | Saturday: 9:00 AM – 7:00 PM | Sunday: 9:00 AM – 7:00 PM",
    "open_now": false,
    "types": "",
    "place_id": "ChIJrbr-agApuYUR4iXnuNtQEfg"
  },
  {
    "name": "Café Pacífico, Mazunte, Oaxaca",
    "category": "Stores",
    "latitude": 15.6657866,
    "longitude": -96.55492629999999,
    "address": "esquina Palma Real(Posada La, C. la Barrita, 70946 Mazunte, Oax., Mexico",
    "phone": "N/A",
    "website": "N/A",
    "google_maps_url": "https://maps.google.com/?cid=12101667996395079941",
    "rating": 5,
    "review_count": 2,
    "price_level": "N/A",
    "hours": "Monday: 8:00 AM – 1:00 PM | Tuesday: Closed | Wednesday: 8:00 AM – 1:00 PM | Thursday: 8:00 AM – 1:00 PM | Friday: 8:00 AM – 1:00 PM | Saturday: 8:00 AM – 1:00 PM | Sunday: 8:00 AM – 1:00 PM",
    "open_now": false,
    "types": "",
    "place_id": "ChIJVx-lo2UpuYURBYnX4uzC8ac"
  },
  {
    "name": "LURIO",
    "category": "Stores",
    "latitude": 15.6657665,
    "longitude": -96.5550466,
    "address": "falafel el loco y helados veganos, C. la Barrita Supermanzana Frente entre los jacalitos y la mezcaleria, 70947 Mazunte, Oax., Mexico",
    "phone": "(250) 938-7110",
    "website": "N/A",
    "google_maps_url": "https://maps.google.com/?cid=17583868868394071462",
    "rating": 5,
    "review_count": 8,
    "price_level": "N/A",
    "hours": "Monday: Closed | Tuesday: Closed | Wednesday: 3:00 – 10:30 PM | Thursday: 3:00 – 10:30 PM | Friday: 3:00 – 10:30 PM | Saturday: 3:00 – 10:30 PM | Sunday: 3:00 – 10:30 PM",
    "open_now": false,
    "types": "",
    "place_id": "ChIJ9zz-7cQpuYURprWtjZJzBvQ"
  },
  {
    "name": "La Choza",
    "category": "Stores",
    "latitude": 15.6656875,
    "longitude": -96.5554375,
    "address": "MC8V+7R, 70947 Mazunte, Oax., Mexico",
    "phone": "958 116 0841",
    "website": "N/A",
    "google_maps_url": "https://maps.google.com/?cid=9292109655073610321",
    "rating": 4.3,
    "review_count": 3,
    "price_level": "N/A",
    "hours": "Monday: 7:00 AM – 12:00 AM | Tuesday: 7:00 AM – 12:00 AM | Wednesday: 7:00 AM – 12:00 AM | Thursday: 7:00 AM – 12:00 AM | Friday: 7:00 AM – 12:00 AM | Saturday: 7:00 AM – 12:00 AM | Sunday: 7:00 AM – 12:00 AM",
    "open_now": false,
    "types": "",
    "place_id": "ChIJeZ1zeM0puYURUdqj5H809IA"
  },
  {
    "name": "Cocomiel Vegan Ice Cream",
    "category": "Stores",
    "latitude": 15.6661515,
    "longitude": -96.555098,
    "address": "C. la Barrita, 70947 Mazunte, Oax., Mexico",
    "phone": "958 115 6364",
    "website": "https://instagram.com/cocomielhelados?igshid=NzZlODBkYWE4Ng==",
    "google_maps_url": "https://maps.google.com/?cid=6310441120328149206",
    "rating": 4.9,
    "review_count": 41,
    "price_level": "N/A",
    "hours": "Monday: Closed | Tuesday: Closed | Wednesday: Closed | Thursday: Closed | Friday: 2:00 – 10:00 PM | Saturday: 2:00 – 10:00 PM | Sunday: 2:00 – 10:00 PM",
    "open_now": false,
    "types": "",
    "place_id": "ChIJfUVEXZEpuYUR1mgtycMwk1c"
  },
  {
    "name": "Terraza del Arquitecto",
    "category": "Stores",
    "latitude": 15.6640196,
    "longitude": -96.55547,
    "address": "Rinconcito, 70946 Mazunte, Oax., Mexico",
    "phone": "N/A",
    "website": "N/A",
    "google_maps_url": "https://maps.google.com/?cid=6339797770089882670",
    "rating": 4.1,
    "review_count": 428,
    "price_level": "N/A",
    "hours": "Monday: 7:00 AM – 10:00 PM | Tuesday: 7:00 AM – 10:00 PM | Wednesday: 7:00 AM – 10:00 PM | Thursday: 7:00 AM – 10:00 PM | Friday: 7:00 AM – 10:00 PM | Saturday: 7:00 AM – 10:00 PM | Sunday: 7:00 AM – 10:00 PM",
    "open_now": false,
    "types": "",
    "place_id": "ChIJGcBHSD4ouYURLmQFcnt8-1c"
  },
  {
    "name": "Perla Blanca Boutique",
    "category": "Stores",
    "latitude": 15.6643816,
    "longitude": -96.55573559999999,
    "address": "Rinconcito, 70947 Mazunte, Oax., Mexico",
    "phone": "55 6252 6031",
    "website": "N/A",
    "google_maps_url": "https://maps.google.com/?cid=18086951928153696153",
    "rating": 5,
    "review_count": 4,
    "price_level": "N/A",
    "hours": "Monday: 11:00 AM – 7:00 PM | Tuesday: 11:00 AM – 7:00 PM | Wednesday: 11:00 AM – 7:00 PM | Thursday: 11:00 AM – 7:00 PM | Friday: Closed | Saturday: 11:00 AM – 7:00 PM | Sunday: 11:00 AM – 7:00 PM",
    "open_now": false,
    "types": "",
    "place_id": "ChIJq2g5UwApuYURmecqK_PCAfs"
  },
  {
    "name": "Miscelanea Golfina",
    "category": "Stores",
    "latitude": 15.6666805,
    "longitude": -96.55305489999999,
    "address": "70947 Mazunte, Oax., Mexico",
    "phone": "N/A",
    "website": "N/A",
    "google_maps_url": "https://maps.google.com/?cid=12726456178806689720",
    "rating": "N/A",
    "review_count": "N/A",
    "price_level": "N/A",
    "hours": "Monday: 8:30 AM – 11:00 PM | Tuesday: 8:30 AM – 11:00 PM | Wednesday: 8:30 AM – 11:00 PM | Thursday: 8:30 AM – 11:00 PM | Friday: 8:30 AM – 11:00 PM | Saturday: 8:30 AM – 11:00 PM | Sunday: 8:30 AM – 11:00 PM",
    "open_now": false,
    "types": "",
    "place_id": "ChIJyXklIDwouYURuA9Zi3d0nbA"
  },
  {
    "name": "Haramara",
    "category": "Stores",
    "latitude": 15.6641303,
    "longitude": -96.555758,
    "address": "Calle playa, Rinconcito, 70947 Mazunte, Oax., Mexico",
    "phone": "958 131 6744",
    "website": "N/A",
    "google_maps_url": "https://maps.google.com/?cid=3071070205788038194",
    "rating": "N/A",
    "review_count": "N/A",
    "price_level": "N/A",
    "hours": "Monday: Closed | Tuesday: Closed | Wednesday: 12:00 – 6:00 PM | Thursday: Closed | Friday: Closed | Saturday: 12:00 – 8:00 PM | Sunday: 12:00 – 8:00 PM",
    "open_now": false,
    "types": "",
    "place_id": "ChIJ-ZR9I-spuYURMiRIuBSinio"
  },
  {
    "name": "desire digital mazunte",
    "category": "Stores",
    "latitude": 15.6668294,
    "longitude": -96.5534107,
    "address": "Carey, 70947 Mazunte, Oax., Mexico",
    "phone": "33 1238 4005",
    "website": "https://desire-sexshop-online.kyte.site/",
    "google_maps_url": "https://maps.google.com/?cid=11525828922466260515",
    "rating": "N/A",
    "review_count": "N/A",
    "price_level": "N/A",
    "hours": "Monday: Open 24 hours | Tuesday: Open 24 hours | Wednesday: Open 24 hours | Thursday: Open 24 hours | Friday: Open 24 hours | Saturday: Open 24 hours | Sunday: Open 24 hours",
    "open_now": true,
    "types": "",
    "place_id": "ChIJ_yfBEEApuYURI1aGqVb4858"
  },
  {
    "name": "Oaxaca de mis Amores",
    "category": "Stores",
    "latitude": 15.6667251,
    "longitude": -96.55307549999999,
    "address": "70947 Mazunte, Oax., Mexico",
    "phone": "N/A",
    "website": "N/A",
    "google_maps_url": "https://maps.google.com/?cid=8635237488320891871",
    "rating": 4.2,
    "review_count": 18,
    "price_level": "N/A",
    "hours": "Monday: 7:00 AM – 11:00 PM | Tuesday: 7:00 AM – 11:00 PM | Wednesday: 7:00 AM – 11:00 PM | Thursday: 7:00 AM – 11:00 PM | Friday: 7:00 AM – 11:00 PM | Saturday: 7:00 AM – 11:00 PM | Sunday: 7:00 AM – 11:00 PM",
    "open_now": false,
    "types": "",
    "place_id": "ChIJQ1SfAQApuYUR38uAgr6G1nc"
  },
  {
    "name": "Mini super El Grillito",
    "category": "Stores",
    "latitude": 15.6668834,
    "longitude": -96.5532861,
    "address": "Entre La Esc Primaria Y Museo Tortuga, Centro, 70947 Mazunte, Oax., Mexico",
    "phone": "N/A",
    "website": "N/A",
    "google_maps_url": "https://maps.google.com/?cid=9825218492040105831",
    "rating": 5,
    "review_count": 1,
    "price_level": "N/A",
    "hours": "N/A",
    "open_now": "Unknown",
    "types": "",
    "place_id": "ChIJc1-_BQApuYURZ0-miikwWog"
  },
  {
    "name": "CORAL Lámparas artesanales",
    "category": "Stores",
    "latitude": 15.665832,
    "longitude": -96.5558215,
    "address": "Andador el Rinconcito frente a Camino a Mermejita Mazunte, 70947 Santa María Tonameca, Oax., Mexico",
    "phone": "958 119 3092",
    "website": "N/A",
    "google_maps_url": "https://maps.google.com/?cid=5469561956150840205",
    "rating": 5,
    "review_count": 2,
    "price_level": "N/A",
    "hours": "Monday: Closed | Tuesday: Closed | Wednesday: Closed | Thursday: Closed | Friday: 4:00 – 10:00 PM | Saturday: 4:00 – 8:00 PM | Sunday: 4:00 – 10:00 PM",
    "open_now": false,
    "types": "",
    "place_id": "ChIJnxuWaRUpuYURjYtcwZ7J50s"
  },
  {
    "name": "Niza Doo Beachwear Mazunte",
    "category": "Stores",
    "latitude": 15.6651453,
    "longitude": -96.5560538,
    "address": "Rinconcito s/n, 70947 Mazunte, Oax., Mexico",
    "phone": "N/A",
    "website": "http://www.nizadoo.com/",
    "google_maps_url": "https://maps.google.com/?cid=3292380568182932473",
    "rating": 3.5,
    "review_count": 2,
    "price_level": "N/A",
    "hours": "Monday: 9:00 AM – 8:00 PM | Tuesday: 9:00 AM – 8:00 PM | Wednesday: 9:00 AM – 8:00 PM | Thursday: 9:00 AM – 8:00 PM | Friday: 9:00 AM – 8:00 PM | Saturday: 9:00 AM – 8:00 PM | Sunday: 9:00 AM – 3:00 PM, 4:00 – 8:00 PM",
    "open_now": false,
    "types": "",
    "place_id": "ChIJgYQU5dspuYUR-UPx167isC0"
  },
  {
    "name": "Posada Recinto del Viento",
    "category": "Coworking Spaces",
    "latitude": 15.6665616,
    "longitude": -96.5427631,
    "address": "Domicilio conocido Posada Recinto del Viento San Agustinillo, 70947 San Pedro Pochutla, Oax., Mexico",
    "phone": "N/A",
    "website": "https://recintodelviento.com/",
    "google_maps_url": "https://maps.google.com/?cid=5497350039858871843",
    "rating": 5,
    "review_count": 11,
    "price_level": "N/A",
    "hours": "Monday: 8:00 AM – 8:00 PM | Tuesday: 8:00 AM – 8:00 PM | Wednesday: 8:00 AM – 8:00 PM | Thursday: 8:00 AM – 8:00 PM | Friday: 8:00 AM – 8:00 PM | Saturday: 8:00 AM – 8:00 PM | Sunday: 8:00 AM – 8:00 PM",
    "open_now": false,
    "types": "",
    "place_id": "ChIJTVfC0zYouYURI37EK7yCSkw"
  },
  {
    "name": "Lavandería",
    "category": "Laundry",
    "latitude": 15.6665092,
    "longitude": -96.5441783,
    "address": "C. Agustivino 10, 70947 San Agustinillo, Oax., Mexico",
    "phone": "N/A",
    "website": "N/A",
    "google_maps_url": "https://maps.google.com/?cid=16586553759383528109",
    "rating": 5,
    "review_count": 1,
    "price_level": "N/A",
    "hours": "N/A",
    "open_now": "Unknown",
    "types": "",
    "place_id": "ChIJR53ACAApuYURraL5y8NGL-Y"
  },
  {
    "name": "LAVANDERIA LA ESPUMA",
    "category": "Laundry",
    "latitude": 15.6691786,
    "longitude": -96.5536585,
    "address": "70947 Mazunte, Oax., Mexico",
    "phone": "N/A",
    "website": "N/A",
    "google_maps_url": "https://maps.google.com/?cid=1287539975013929842",
    "rating": 2.3,
    "review_count": 17,
    "price_level": "N/A",
    "hours": "N/A",
    "open_now": "Unknown",
    "types": "",
    "place_id": "ChIJ0QDcrJMpuYURchPSHMlC3hE"
  },
  {
    "name": "Laundry Chelita",
    "category": "Laundry",
    "latitude": 15.666358,
    "longitude": -96.55578829999999,
    "address": "Rinconcito, 70947 Mazunte, Oax., Mexico",
    "phone": "N/A",
    "website": "N/A",
    "google_maps_url": "https://maps.google.com/?cid=13210117935233624916",
    "rating": 3,
    "review_count": 25,
    "price_level": "N/A",
    "hours": "Monday: 8:00 AM – 7:00 PM | Tuesday: 8:00 AM – 7:00 PM | Wednesday: 8:00 AM – 7:00 PM | Thursday: 8:00 AM – 7:00 PM | Friday: 8:00 AM – 7:00 PM | Saturday: 8:00 AM – 7:00 PM | Sunday: 8:00 AM – 7:00 PM",
    "open_now": false,
    "types": "",
    "place_id": "ChIJ3zwBmX4puYURVOudmkXEU7c"
  },
  {
    "name": "lavanderia",
    "category": "Laundry",
    "latitude": 15.6668002,
    "longitude": -96.547332,
    "address": "70947 Santa María Tonameca, Oaxaca, Mexico",
    "phone": "N/A",
    "website": "N/A",
    "google_maps_url": "https://maps.google.com/?cid=15675074457808604627",
    "rating": 2.3,
    "review_count": 8,
    "price_level": "N/A",
    "hours": "N/A",
    "open_now": "Unknown",
    "types": "",
    "place_id": "ChIJF8CQvYIpuYUR0w17VSsNidk"
  },
  {
    "name": "Lavanderia BENJY",
    "category": "Laundry",
    "latitude": 15.6678422,
    "longitude": -96.55082089999999,
    "address": "C. Tamarindos, 70946 Mazunte, Oax., Mexico",
    "phone": "958 107 0188",
    "website": "N/A",
    "google_maps_url": "https://maps.google.com/?cid=675487687549914003",
    "rating": 4.4,
    "review_count": 11,
    "price_level": "N/A",
    "hours": "Monday: 7:00 AM – 4:00 PM | Tuesday: 7:00 AM – 4:00 PM | Wednesday: 7:00 AM – 4:00 PM | Thursday: 7:00 AM – 4:00 PM | Friday: 7:00 AM – 4:00 PM | Saturday: 7:00 AM – 2:00 PM | Sunday: Closed",
    "open_now": false,
    "types": "",
    "place_id": "ChIJXZrQCicpuYURkwuQEnnQXwk"
  },
  {
    "name": "Lavandería Vicky",
    "category": "Laundry",
    "latitude": 15.6669518,
    "longitude": -96.5553822,
    "address": "C. la Barrita, 70947 Mazunte, Oax., Mexico",
    "phone": "81 4649 1985",
    "website": "N/A",
    "google_maps_url": "https://maps.google.com/?cid=9481917036194413974",
    "rating": 2.9,
    "review_count": 8,
    "price_level": "N/A",
    "hours": "Monday: 9:00 AM – 4:00 PM | Tuesday: 9:00 AM – 4:00 PM | Wednesday: 9:00 AM – 4:00 PM | Thursday: 9:00 AM – 4:00 PM | Friday: 9:00 AM – 4:00 PM | Saturday: 9:00 AM – 3:00 PM | Sunday: Closed",
    "open_now": false,
    "types": "",
    "place_id": "ChIJs4xrBwApuYURlr0XnE6JloM"
  },
  {
    "name": "Cabañas Mágico Atardecer",
    "category": "Laundry",
    "latitude": 15.6651996,
    "longitude": -96.5386078,
    "address": "70947, Rancho las hamacas, 70947 México, Oax., Mexico",
    "phone": "958 109 7523",
    "website": "N/A",
    "google_maps_url": "https://maps.google.com/?cid=7255242678062456483",
    "rating": 5,
    "review_count": 32,
    "price_level": "N/A",
    "hours": "N/A",
    "open_now": "Unknown",
    "types": "",
    "place_id": "ChIJa3ABCckpuYURo54qmcbMr2Q"
  },
  {
    "name": "Ocean Surf School",
    "category": "Surf Shops",
    "latitude": 15.6656377,
    "longitude": -96.5444967,
    "address": "70947 San Agustinillo, Oax., Mexico",
    "phone": "958 587 6569",
    "website": "https://m.facebook.com/profile.php?id=100063933879902",
    "google_maps_url": "https://maps.google.com/?cid=547924703253075835",
    "rating": 4.4,
    "review_count": 20,
    "price_level": "N/A",
    "hours": "Monday: Open 24 hours | Tuesday: Open 24 hours | Wednesday: Open 24 hours | Thursday: Open 24 hours | Friday: Open 24 hours | Saturday: Open 24 hours | Sunday: Open 24 hours",
    "open_now": true,
    "types": "",
    "place_id": "ChIJn3KEd6UpuYURe5cPVZ2emgc"
  },
  {
    "name": "Sudaka Surf School & Shop",
    "category": "Surf Shops",
    "latitude": 15.6669334,
    "longitude": -96.5510432,
    "address": "Calle principal, 70947 Mazunte, Oax., Mexico",
    "phone": "954 154 3119",
    "website": "http://sudakasurf.com/",
    "google_maps_url": "https://maps.google.com/?cid=18156003117842470677",
    "rating": 5,
    "review_count": 87,
    "price_level": "N/A",
    "hours": "Monday: 9:00 AM – 4:00 PM | Tuesday: 9:00 AM – 4:00 PM | Wednesday: 9:00 AM – 4:00 PM | Thursday: 9:00 AM – 4:00 PM | Friday: 9:00 AM – 4:00 PM | Saturday: 9:00 AM – 4:00 PM | Sunday: 9:00 AM – 4:00 PM",
    "open_now": false,
    "types": "",
    "place_id": "ChIJhwPXeo4puYURFZfiG6QU9_s"
  },
  {
    "name": "Jahir’s Surf School",
    "category": "Surf Shops",
    "latitude": 15.6660885,
    "longitude": -96.54600479999999,
    "address": "Supermanzana Playa, 70947 San Agustinillo, Oax., Mexico",
    "phone": "951 122 2398",
    "website": "https://www.instagram.com/jahir_surfschool?igsh=MWJkYnVjNm1xZDcycg%3D%3D&utm_source=qr",
    "google_maps_url": "https://maps.google.com/?cid=11464278945710803351",
    "rating": 4.9,
    "review_count": 33,
    "price_level": "N/A",
    "hours": "Monday: 8:00 AM – 6:00 PM | Tuesday: 8:00 AM – 6:00 PM | Wednesday: 8:00 AM – 6:00 PM | Thursday: 8:00 AM – 6:00 PM | Friday: 8:00 AM – 6:00 PM | Saturday: 8:00 AM – 6:00 PM | Sunday: 8:00 AM – 6:00 PM",
    "open_now": false,
    "types": "",
    "place_id": "ChIJx-CAHAApuYURlwkV9fVMGZ8"
  },
  {
    "name": "Alejandra",
    "category": "Surf Shops",
    "latitude": 15.6650396,
    "longitude": -96.5471967,
    "address": "Unnamed Road, 70946 Santa María Tonameca, Oax., Mexico",
    "phone": "N/A",
    "website": "N/A",
    "google_maps_url": "https://maps.google.com/?cid=4653811308995062142",
    "rating": 3.8,
    "review_count": 221,
    "price_level": "$",
    "hours": "Monday: 9:00 AM – 6:00 PM | Tuesday: 9:00 AM – 6:00 PM | Wednesday: 9:00 AM – 6:00 PM | Thursday: 9:00 AM – 6:00 PM | Friday: 9:00 AM – 6:00 PM | Saturday: 9:00 AM – 6:00 PM | Sunday: 9:00 AM – 6:00 PM",
    "open_now": false,
    "types": "",
    "place_id": "ChIJLWLlwjkouYURfqlYhLqolUA"
  },
  {
    "name": "PRICILLAS SURF SHACK",
    "category": "Surf Shops",
    "latitude": 15.6654078,
    "longitude": -96.5439497,
    "address": "Principal S/N San Agustinillo, 70946, 70947 San Agustinillo, Oax., Mexico",
    "phone": "N/A",
    "website": "N/A",
    "google_maps_url": "https://maps.google.com/?cid=9198869989567732743",
    "rating": 1,
    "review_count": 1,
    "price_level": "N/A",
    "hours": "N/A",
    "open_now": "Unknown",
    "types": "",
    "place_id": "ChIJVS15FikpuYURB5wvj4TzqH8"
  },
  {
    "name": "Sunset Paddle Tours",
    "category": "Surf Shops",
    "latitude": 15.6648588,
    "longitude": -96.5560417,
    "address": "70947 Mazunte, Oax., Mexico",
    "phone": "(907) 280-9279",
    "website": "http://facebook.com/sunsetpaddletours",
    "google_maps_url": "https://maps.google.com/?cid=13971520468589737751",
    "rating": 5,
    "review_count": 18,
    "price_level": "N/A",
    "hours": "Monday: Open 24 hours | Tuesday: Open 24 hours | Wednesday: Open 24 hours | Thursday: Open 24 hours | Friday: Open 24 hours | Saturday: Open 24 hours | Sunday: Open 24 hours",
    "open_now": true,
    "types": "",
    "place_id": "ChIJD_-hPD4ouYURF_djhtfP5ME"
  },
  {
    "name": "Surf School IPA",
    "category": "Surf Shops",
    "latitude": 15.6658669,
    "longitude": -96.5460397,
    "address": "México 175 141, 70947 San Agustinillo, Oax., Mexico",
    "phone": "958 587 4008",
    "website": "https://shop.magin.mx/surf-oaxaca-clases-surfing-playas-mexico-hotel-hostal",
    "google_maps_url": "https://maps.google.com/?cid=7666959581836231323",
    "rating": 5,
    "review_count": 14,
    "price_level": "N/A",
    "hours": "Monday: 8:00 AM – 6:00 PM | Tuesday: 8:00 AM – 6:00 PM | Wednesday: 8:00 AM – 6:00 PM | Thursday: 8:00 AM – 6:00 PM | Friday: 8:00 AM – 6:00 PM | Saturday: 8:00 AM – 6:00 PM | Sunday: 8:00 AM – 6:00 PM",
    "open_now": false,
    "types": "",
    "place_id": "ChIJZRHSFgApuYURm0KgTh6DZmo"
  },
  {
    "name": "Scooter Rental SURF RIDERS",
    "category": "Surf Shops",
    "latitude": 15.6686432,
    "longitude": -96.5537633,
    "address": "La parota 43, del puente arroyo, 70949 Mazunte, Oax., Mexico",
    "phone": "55 8513 0653",
    "website": "https://www.instagram.com/mazuntesurf_riders?igsh=MTNhbG4yMTlncGt2cg==",
    "google_maps_url": "https://maps.google.com/?cid=16652954482138912314",
    "rating": 5,
    "review_count": 5,
    "price_level": "N/A",
    "hours": "Monday: 8:00 AM – 8:00 PM | Tuesday: 8:00 AM – 8:00 PM | Wednesday: 8:00 AM – 8:00 PM | Thursday: 8:00 AM – 8:00 PM | Friday: 8:00 AM – 8:00 PM | Saturday: 8:00 AM – 8:00 PM | Sunday: Closed",
    "open_now": false,
    "types": "",
    "place_id": "ChIJmUd3jaopuYUROpaj0N4tG-c"
  },
  {
    "name": "Arena Negra",
    "category": "Surf Shops",
    "latitude": 15.6678571,
    "longitude": -96.5551948,
    "address": "70947 Mazunte, Oax., Mexico",
    "phone": "958 587 6046",
    "website": "N/A",
    "google_maps_url": "https://maps.google.com/?cid=1379355381230915053",
    "rating": 4.7,
    "review_count": 274,
    "price_level": "N/A",
    "hours": "Monday: 5:00 – 10:00 PM | Tuesday: 5:00 – 10:00 PM | Wednesday: 5:00 – 10:00 PM | Thursday: Closed | Friday: 5:00 – 10:00 PM | Saturday: 5:00 – 10:00 PM | Sunday: 5:00 – 10:00 PM",
    "open_now": false,
    "types": "",
    "place_id": "ChIJE5MLbuEpuYUR7c1KPWl0JBM"
  },
  {
    "name": "Pacifico Magico Tours",
    "category": "Surf Shops",
    "latitude": 15.665058,
    "longitude": -96.54722369999999,
    "address": "70947 San Agustinillo, Oax., Mexico",
    "phone": "N/A",
    "website": "https://www.instagram.com/pacifico_magico_tours?igsh=bTd4eTM4ZGY1ZGdw",
    "google_maps_url": "https://maps.google.com/?cid=12557088816228888746",
    "rating": 4.6,
    "review_count": 54,
    "price_level": "N/A",
    "hours": "N/A",
    "open_now": "Unknown",
    "types": "",
    "place_id": "ChIJMelfaAApuYURqnBagL-9Q64"
  },
  {
    "name": "Casa Aamori",
    "category": "Surf Shops",
    "latitude": 15.6657915,
    "longitude": -96.54252729999999,
    "address": "Calle Principal S/N, San Agustinillo, 70946 Santa María Tonameca, Oax., Mexico",
    "phone": "55 5436 2538",
    "website": "http://www.aamoriboutiquehotel.com/",
    "google_maps_url": "https://maps.google.com/?cid=12254485391019365111",
    "rating": 4.4,
    "review_count": 117,
    "price_level": "N/A",
    "hours": "N/A",
    "open_now": "Unknown",
    "types": "",
    "place_id": "ChIJVVRDkUbUuIUR91LsPImtEKo"
  },
  {
    "name": "El Triángulo Mazunte (by appointment)",
    "category": "Surf Shops",
    "latitude": 15.6718109,
    "longitude": -96.5543148,
    "address": "El Triangulo S/N, 70947 Oax., Mexico",
    "phone": "(917) 207-5125",
    "website": "http://www.eltriangulo.co/",
    "google_maps_url": "https://maps.google.com/?cid=18011987928341622408",
    "rating": 4.9,
    "review_count": 15,
    "price_level": "N/A",
    "hours": "N/A",
    "open_now": "Unknown",
    "types": "",
    "place_id": "ChIJdyq0nVYpuYURiC5t15Zv9_k"
  },
  {
    "name": "La Ola",
    "category": "Surf Shops",
    "latitude": 15.6655902,
    "longitude": -96.5453477,
    "address": "México 175 141, 70947 San Agustinillo, Oax., Mexico",
    "phone": "958 118 5943",
    "website": "N/A",
    "google_maps_url": "https://maps.google.com/?cid=3486196803127788844",
    "rating": 4,
    "review_count": 252,
    "price_level": "N/A",
    "hours": "Monday: 7:30 AM – 5:30 PM | Tuesday: 7:30 AM – 5:30 PM | Wednesday: 7:30 AM – 5:30 PM | Thursday: 7:30 AM – 5:30 PM | Friday: 7:30 AM – 5:30 PM | Saturday: 7:30 AM – 5:30 PM | Sunday: 10:00 AM – 5:30 PM",
    "open_now": false,
    "types": "",
    "place_id": "ChIJF0yp4TkouYURLMWIk4V1YTA"
  },
  {
    "name": "Cangrejito playero",
    "category": "Surf Shops",
    "latitude": 15.6658171,
    "longitude": -96.5442475,
    "address": "san agustinillo, avenida principal, 70947 OAXACA, Oax., Mexico",
    "phone": "958 587 4008",
    "website": "https://shop.magin.mx/surf-oaxaca-clases-surfing-playas-mexico-hotel-hostal",
    "google_maps_url": "https://maps.google.com/?cid=10358892081178489604",
    "rating": "N/A",
    "review_count": "N/A",
    "price_level": "N/A",
    "hours": "Monday: 8:00 AM – 6:00 PM | Tuesday: 8:00 AM – 6:00 PM | Wednesday: 8:00 AM – 6:00 PM | Thursday: 8:00 AM – 6:00 PM | Friday: 8:00 AM – 6:00 PM | Saturday: 8:00 AM – 6:00 PM | Sunday: 8:00 AM – 6:00 PM",
    "open_now": false,
    "types": "",
    "place_id": "ChIJEVwVLLEpuYURBDNAzXYtwo8"
  }
]